UAI,Sigle,Nom Archipel,Nom complet (Archipel),Nom complet,PAS.1.Collège de rattachement,PAS.1.Dénomination principale,PAS.1.Dénomination complémentaire,Education prioritaire (Archipel),Territoire,Adresse,PAS.1.Lieu dit,Code Postal,Ville,IPS,ULIS,Degré,Secteur,Mail,Téléphone,Chef d'établissement,PAS.1.Hébergement,Circonscription,PAS,Nom du PAS,Bassin,Secteur SEGPA,Secteur ERSEH,ERSEH,PIAL,Effectifs ens. Adapté,Effectifs (Archipel),PAS.1.Effectifs,Latitude,Longitude,Lat Moyen Secteur,Long Moyen Secteur,Indice d'éloignement
0670004R,"CLG ",COLLEGE ALICE DAUL,COLLEGE ALICE DAUL BISCHHEIM,COLLEGE LE RIED BISCHHEIM,COLLEGE LE RIED,"COLLEGE ","LE RIED ",Hors EP,,4 rue du Guirbaden,,67800,BISCHHEIM,85.4,1,2nd degré,Public,ce.0670004R@ac-strasbourg.fr,0388334080,ANNE LIVET,SANS INTERNAT AVEC DEMI PENSION,EUROMETROPOLE NORD,Alice Daul,Alice Daul,EUROMETROPOLE,,STRASBOURG NORD 1,DUBOIS PAQUET Emmanuelle,PIAL_0670004R,54,666,705,48.61889808,7.763812205,"48,61816177","7,760710749",0.242236208
0670314C,"E.M.PU ",ECOLE MATERNELLE CANAL,ECOLE MATERNELLE CANAL BISCHHEIM,ECOLE MATERNELLE PUBLIQUE CANAL BISCHHEIM,COLLEGE LE RIED,"ECOLE MATERNELLE PUBLIQUE ","CANAL ",Hors EP,,6 rue des Sapins,,67800,BISCHHEIM,0,0,1er degré,Public,ce.0670314C@ac-strasbourg.fr,0388331164,,,EUROMETROPOLE NORD,Alice Daul,Alice Daul,EUROMETROPOLE,,STRASBOURG NORD 1,DUBOIS PAQUET Emmanuelle,PIAL_0670004R,,90,84,48.61848445,7.757890737,"48,61816177","7,760710749",0.210375378
0671993C,"E.M.PU ",ECOLE MATERNELLE CENTRE,ECOLE MATERNELLE CENTRE BISCHHEIM,ECOLE MATERNELLE PUBLIQUE CENTRE BISCHHEIM,COLLEGE LE RIED,"ECOLE MATERNELLE PUBLIQUE ","CENTRE ",Hors EP,,6 rue Nationale,,67800,BISCHHEIM,0,0,1er degré,Public,ce.0671993C@ac-strasbourg.fr,0388333494,,,EUROMETROPOLE NORD,Alice Daul,Alice Daul,EUROMETROPOLE,,STRASBOURG NORD 1,DUBOIS PAQUET Emmanuelle,PIAL_0670004R,,101,103,48.61437743,7.754748695,"48,61816177","7,760710749",0.607583526
0672147V,"E.M.PU ",ECOLE MATERNELLE LUCIE AUBRAC,ECOLE MATERNELLE LUCIE AUBRAC BISCHHEIM,ECOLE MATERNELLE PUBLIQUE LUCIE AUBRAC BISCHHEIM,COLLEGE LE RIED,"ECOLE MATERNELLE PUBLIQUE ","LUCIE AUBRAC ",Hors EP,,17 rue du Guirbaden,,67800,BISCHHEIM,0,0,1er degré,Public,ce.0672147V@ac-strasbourg.fr,0388335770,,,EUROMETROPOLE NORD,Alice Daul,Alice Daul,EUROMETROPOLE,,STRASBOURG NORD 1,DUBOIS PAQUET Emmanuelle,PIAL_0670004R,,103,107,48.61570809,7.763382974,"48,61816177","7,760710749",0.336194281
0672219Y,"E.M.PU ",ECOLE MATERNELLE CENTRE,ECOLE MATERNELLE CENTRE HOENHEIM,ECOLE MATERNELLE PUBLIQUE CENTRE HOENHEIM,COLLEGE LE RIED,"ECOLE MATERNELLE PUBLIQUE ","CENTRE ",Hors EP,,3 rue de l'Ecole,,67800,HOENHEIM,0,0,1er degré,Public,ce.0672219Y@ac-strasbourg.fr,0388331331,,,EUROMETROPOLE NORD,Alice Daul,Alice Daul,EUROMETROPOLE,,STRASBOURG NORD 1,DUBOIS PAQUET Emmanuelle,PIAL_0670004R,,165,151,48.62210013,7.754006094,"48,61816177","7,760710749",0.659285701
0672261U,"E.E.PU ",ECOLE PRIMAIRE CENTRE,ECOLE PRIMAIRE CENTRE HOENHEIM,ECOLE PRIMAIRE PUBLIQUE CENTRE HOENHEIM,COLLEGE LE RIED,"ECOLE PRIMAIRE PUBLIQUE ","CENTRE ",Hors EP,,18 rue des Vosges,,67800,HOENHEIM,0,0,1er degré,Public,ce.0672261U@ac-strasbourg.fr,0388330940,,,EUROMETROPOLE NORD,Alice Daul,Alice Daul,EUROMETROPOLE,BISCHHEIM Le Ried,STRASBOURG NORD 1,DUBOIS PAQUET Emmanuelle,PIAL_0670004R,,246,234,48.6225276,7.751855205,"48,61816177","7,760710749",0.812018449
0672391K,"E.E.PU ",ECOLE PRIMAIRE LUCIE AUBRAC,ECOLE PRIMAIRE LUCIE AUBRAC BISCHHEIM,ECOLE PRIMAIRE PUBLIQUE LUCIE AUBRAC BISCHHEIM,COLLEGE LE RIED,"ECOLE PRIMAIRE PUBLIQUE ","LUCIE AUBRAC ",Hors EP,,Rue du Guirbaden,,67800,BISCHHEIM,0,1,1er degré,Public,ce.0672391K@ac-strasbourg.fr,0388334938,,,EUROMETROPOLE NORD,Alice Daul,Alice Daul,EUROMETROPOLE,BISCHHEIM Le Ried,STRASBOURG NORD 1,DUBOIS PAQUET Emmanuelle,PIAL_0670004R,,176,141,48.61803704,7.763305631,"48,61816177","7,760710749",0.191248566
0672455E,"E.E.PU ",ECOLE PRIMAIRE BOUCHESECHE,ECOLE PRIMAIRE BOUCHESECHE HOENHEIM,ECOLE PRIMAIRE PUBLIQUE BOUCHESECHE HOENHEIM,COLLEGE LE RIED,"ECOLE PRIMAIRE PUBLIQUE ","BOUCHESECHE ",Hors EP,,5 rue du Wangenbourg,,67800,HOENHEIM,0,1,1er degré,Public,ce.0672455E@ac-strasbourg.fr,0388332655,,,EUROMETROPOLE NORD,Alice Daul,Alice Daul,EUROMETROPOLE,BISCHHEIM Le Ried,STRASBOURG NORD 1,DUBOIS PAQUET Emmanuelle,PIAL_0670004R,,338,339,48.62007662,7.767550007,"48,61816177","7,760710749",0.545961657
0672604S,"LGT ",LYCEE GENERAL ET TECHNOLOGIQUE MARC BLOCH,LYCEE GENERAL ET TECHNOLOGIQUE MARC BLOCH BISCHHEIM,LYCEE GENERAL ET TECHNOLOGIQUE MARC BLOCH BISCHHEIM,,LYCEE GENERAL ET TECHNOLOGIQUE,"MARC BLOCH ",Sans objet,,Allée Blaise Pascal,,67800,BISCHHEIM,102.1,0,2nd degré,Public,ce.0672604S@ac-strasbourg.fr,0390200730,MICHEL WISSENMEYER,AVEC INTERNAT ET DEMI PENSION,EUROMETROPOLE NORD,Alice Daul,Alice Daul,EUROMETROPOLE,,STRASBOURG NORD 1,DUBOIS PAQUET Emmanuelle,PIAL_0672806L,,1254,1240,48.61674015,7.766053868,"48,61816177","7,760710749",0.42338514
0672757H,"E.M.PU ",ECOLE MATERNELLE RIED,ECOLE MATERNELLE RIED HOENHEIM,ECOLE MATERNELLE PUBLIQUE RIED HOENHEIM,COLLEGE LE RIED,"ECOLE MATERNELLE PUBLIQUE ","RIED ",Hors EP,,7 rue de Wangenbourg,,67800,HOENHEIM,0,0,1er degré,Public,ce.0672757H@ac-strasbourg.fr,0388832432,,,EUROMETROPOLE NORD,Alice Daul,Alice Daul,EUROMETROPOLE,,STRASBOURG NORD 1,DUBOIS PAQUET Emmanuelle,PIAL_0670004R,,191,181,48.61968599,7.767807976,"48,61816177","7,760710749",0.548536152
0672777E,"E.E.PU ",ECOLE PRIMAIRE REPUBLIQUE,ECOLE PRIMAIRE REPUBLIQUE BISCHHEIM,ECOLE PRIMAIRE PUBLIQUE REPUBLIQUE BISCHHEIM,COLLEGE LE RIED,"ECOLE PRIMAIRE PUBLIQUE ","REPUBLIQUE ",Hors EP,,Place de la République,,67800,BISCHHEIM,0,1,1er degré,Public,ce.0672777E@ac-strasbourg.fr,0388331260,,,EUROMETROPOLE NORD,Alice Daul,Alice Daul,EUROMETROPOLE,BISCHHEIM Le Ried,STRASBOURG NORD 1,DUBOIS PAQUET Emmanuelle,PIAL_0670004R,,388,427,48.61314389,7.757404848,"48,61816177","7,760710749",0.608590841
0671070Z,"E.P.PU ",ECOLE PRIMAIRE,ECOLE PRIMAIRE MULHAUSEN,ECOLE DES CLES DE CHAMPS MULHAUSEN,COLLEGE OLYMPE DE GOUGES,"ECOLE DES CLES DE CHAMPS ",,Hors EP,,1 rue de la Mairie,,67350,MULHAUSEN,0,0,1er degré,Public,ce.0671070Z@ac-strasbourg.fr,0388893675,,,VOSGES DU NORD,Alsace Bossue,Alsace Bossue,OUEST,BOUXWILLER Le Bastberg,OUEST 3,PAILLE Mathieu,PIAL_0671065U,,48,66,48.88210303,7.552111649,"48,86983648","7,269517905",20.71157531
0671069Y,"E.P.PU ",ECOLE PRIMAIRE,ECOLE PRIMAIRE MENCHHOFFEN,ECOLE PRIMAIRE PUBLIQUE MENCHHOFFEN,COLLEGE OLYMPE DE GOUGES,"ECOLE PRIMAIRE PUBLIQUE ",,Hors EP,,49 rue Principale,,67340,MENCHHOFFEN,0,0,1er degré,Public,ce.0671069Y@ac-strasbourg.fr,0388896668,,,VOSGES DU NORD,Alsace Bossue,Alsace Bossue,OUEST,BOUXWILLER Le Bastberg,OUEST 3,PAILLE Mathieu,PIAL_0671065U,,59,47,48.85969346,7.494554932,"48,86983648","7,269517905",16.49966454
0671084P,"E.E.PU ",ECOLE PRIMAIRE,ECOLE PRIMAIRE UTTWILLER,ECOLE PRIMAIRE PUBLIQUE UTTWILLER,COLLEGE OLYMPE DE GOUGES,"ECOLE PRIMAIRE PUBLIQUE ",,Hors EP,,2 rue d'Ingwiller,,67330,UTTWILLER,0,0,1er degré,Public,ce.0671084P@ac-strasbourg.fr,0388713112,,,VOSGES DU NORD,Alsace Bossue,Alsace Bossue,OUEST,BOUXWILLER Le Bastberg,OUEST 3,PAILLE Mathieu,PIAL_0671065U,,23,19,48.84774117,7.487718238,"48,86983648","7,269517905",16.15085108
0670510R,"E.P.PU ",ECOLE PRIMAIRE PUBLIQUE,ECOLE PRIMAIRE PUBLIQUE REIPERTSWILLER,ECOLE PRIMAIRE PUBLIQUE REIPERTSWILLER,COLLEGE SUZANNE LALIQUE-HAVILAND,"ECOLE PRIMAIRE PUBLIQUE ",,Hors EP,,8 rue des Ecoles,,67340,REIPERTSWILLER,0,0,1er degré,Public,ce.0670510R@ac-strasbourg.fr,0388899049,,,VOSGES DU NORD,Alsace Bossue,Alsace Bossue,OUEST,BOUXWILLER Le Bastberg,OUEST 3,PAILLE Mathieu,PIAL_0671065U,,137,191,48.93283323,7.46393348,"48,86983648","7,269517905",15.84344672
0671065U,"E.P.PU ",ECOLE PRIMAIRE,ECOLE PRIMAIRE INGWILLER,ECOLE PRIMAIRE PUBLIQUE INGWILLER,COLLEGE OLYMPE DE GOUGES,"ECOLE PRIMAIRE PUBLIQUE ",,Hors EP,,2 A rue des Ecoles,,67340,INGWILLER,0,1,1er degré,Public,ce.0671065U@ac-strasbourg.fr,0388894630,,,VOSGES DU NORD,Alsace Bossue,Alsace Bossue,OUEST,BOUXWILLER Le Bastberg,OUEST 3,PAILLE Mathieu,PIAL_0671065U,,377,381,48.87411206,7.474380508,"48,86983648","7,269517905",14.99073012
0670480H,"E.E.PU ",ECOLE PRIMAIRE,ECOLE PRIMAIRE KIRRBERG,ECOLE PRIMAIRE PUBLIQUE KIRRBERG,COLLEGE DES RACINES ET DES AILES,"ECOLE PRIMAIRE PUBLIQUE ",,Hors EP,,41 grand'rue,,67320,KIRRBERG,0,0,1er degré,Public,ce.0670480H@ac-strasbourg.fr,0388019022,,,VOSGES DU NORD,Alsace Bossue,Alsace Bossue,OUEST,SARRE-UNION Pierre Claude,OUEST 5,NEGELE Lucie,PIAL_0670463P,,16,16,48.82277408,7.063279144,"48,86983648","7,269517905",15.97313177
0670035Z,"CLG ",COLLEGE OLYMPE DE GOUGES,COLLEGE OLYMPE DE GOUGES INGWILLER,COLLEGE OLYMPE DE GOUGES INGWILLER,COLLEGE OLYMPE DE GOUGES,"COLLEGE ","OLYMPE DE GOUGES ",Hors EP,,4 rue du gymnase,,67340,INGWILLER,97.2,1,2nd degré,Public,ce.0670035Z@ac-strasbourg.fr,0388894424,SANDRINE BOLLMANN,SANS INTERNAT AVEC DEMI PENSION,VOSGES DU NORD,Alsace Bossue,Alsace Bossue,OUEST,,OUEST 3,PAILLE Mathieu,PIAL_0671065U,,275,301,48.87385137,7.470802258,"48,86983648","7,269517905",14.72829032
0671076F,"E.E.PU ",ECOLE PRIMAIRE,ECOLE PRIMAIRE NIEDERSOULTZBACH,ECOLE PRIMAIRE PUBLIQUE NIEDERSOULTZBACH,COLLEGE OLYMPE DE GOUGES,"ECOLE PRIMAIRE PUBLIQUE ",,Hors EP,,10 rue de l'Eglise,,67330,NIEDERSOULTZBACH,0,0,1er degré,Public,ce.0671076F@ac-strasbourg.fr,0388894739,,,VOSGES DU NORD,Alsace Bossue,Alsace Bossue,OUEST,BOUXWILLER Le Bastberg,OUEST 3,PAILLE Mathieu,PIAL_0671065U,,19,22,48.85021545,7.467429199,"48,86983648","7,269517905",14.64170705
0670466T,"E.M.PU ",ECOLE MATERNELLE,ECOLE MATERNELLE BAERENDORF,ECOLE MATERNELLE PUBLIQUE BAERENDORF,COLLEGE DES RACINES ET DES AILES,"ECOLE MATERNELLE PUBLIQUE ",,Hors EP,,2 rue de l'Ecole,,67320,BAERENDORF,0,0,1er degré,Public,ce.0670466T@ac-strasbourg.fr,0388019490,,,VOSGES DU NORD,Alsace Bossue,Alsace Bossue,OUEST,,OUEST 5,NEGELE Lucie,PIAL_0670463P,,10,18,48.83801861,7.085301496,"48,86983648","7,269517905",13.93465832
0670484M,"E.M.PU ",ECOLE MATERNELLE,ECOLE MATERNELLE RAUWILLER,ECOLE MATERNELLE PUBLIQUE RAUWILLER,COLLEGE DES RACINES ET DES AILES,"ECOLE MATERNELLE PUBLIQUE ",,Hors EP,,48 rue Principale,,67320,RAUWILLER,0,0,1er degré,Public,ce.0670484M@ac-strasbourg.fr,0388019159,,,VOSGES DU NORD,Alsace Bossue,Alsace Bossue,OUEST,,OUEST 5,NEGELE Lucie,PIAL_0670463P,,25,20,48.8118036,7.10696636,"48,86983648","7,269517905",13.53354425
0670470X,"E.E.PU ",ECOLE PRIMAIRE,ECOLE PRIMAIRE BURBACH,ECOLE PRIMAIRE PUBLIQUE BURBACH,COLLEGE DES RACINES ET DES AILES,"ECOLE PRIMAIRE PUBLIQUE ",,Hors EP,,4 place du Tilleul,,67260,BURBACH,0,0,1er degré,Public,ce.0670470X@ac-strasbourg.fr,0388013267,,,VOSGES DU NORD,Alsace Bossue,Alsace Bossue,OUEST,SARRE-UNION Pierre Claude,OUEST 5,NEGELE Lucie,PIAL_0670463P,,20,19,48.90140966,7.112453173,"48,86983648","7,269517905",12.00887314
0670479G,"E.E.PU ",ECOLE PRIMAIRE,ECOLE PRIMAIRE HIRSCHLAND,ECOLE ELEMENTAIRE PUBLIQUE HIRSCHLAND,COLLEGE DES RACINES ET DES AILES,"ECOLE ELEMENTAIRE PUBLIQUE ",,Hors EP,,21 rue de la Poste,,67320,HIRSCHLAND,0,0,1er degré,Public,ce.0670479G@ac-strasbourg.fr,0388019721,,,VOSGES DU NORD,Alsace Bossue,Alsace Bossue,OUEST,SARRE-UNION Pierre Claude,OUEST 5,NEGELE Lucie,PIAL_0670463P,,19,15,48.83726044,7.112265799,"48,86983648","7,269517905",12.06204512
0672910Z,"E.P.PU ",ECOLE PRIMAIRE,ECOLE PRIMAIRE WINGEN SUR MODER,ECOLE PRIMAIRE PUBLIQUE WINGEN SUR MODER,COLLEGE SUZANNE LALIQUE-HAVILAND,"ECOLE PRIMAIRE PUBLIQUE ",,Hors EP,,9 rue de Zittersheim,,67290,WINGEN SUR MODER,0,0,1er degré,Public,ce.0672910Z@ac-strasbourg.fr,0388897033,,,VOSGES DU NORD,Alsace Bossue,Alsace Bossue,OUEST,BOUXWILLER Le Bastberg,OUEST 3,PAILLE Mathieu,PIAL_0671065U,,150,130,48.91869347,7.371709992,"48,86983648","7,269517905",9.237210806
0671739B,"CLG ",COLLEGE SUZANNE LALIQUE HAVILAND,COLLEGE SUZANNE LALIQUE HAVILAND WINGEN SUR MODER,COLLEGE SUZANNE LALIQUE-HAVILAND WINGEN SUR MODER,COLLEGE SUZANNE LALIQUE-HAVILAND,"COLLEGE ","SUZANNE LALIQUE-HAVILAND ",Hors EP,,29 route de Zittersheim,,67290,WINGEN SUR MODER,99.5,0,2nd degré,Public,ce.0671739B@ac-strasbourg.fr,0388897005,STEPHANE METZ,SANS INTERNAT AVEC DEMI PENSION,VOSGES DU NORD,Alsace Bossue,Alsace Bossue,OUEST,,OUEST 3,PAILLE Mathieu,PIAL_0671065U,,236,215,48.91609479,7.367104895,"48,86983648","7,269517905",8.795211511
0670468V,"E.M.PU ",ECOLE MATERNELLE,ECOLE MATERNELLE BERG,ECOLE MATERNELLE PUBLIQUE BERG,COLLEGE DES RACINES ET DES AILES,"ECOLE MATERNELLE PUBLIQUE ",,Hors EP,,39 rue Principale,,67320,BERG,0,0,1er degré,Public,ce.0670468V@ac-strasbourg.fr,0388017508,,,VOSGES DU NORD,Alsace Bossue,Alsace Bossue,OUEST,SARRE-UNION Pierre Claude,OUEST 5,NEGELE Lucie,PIAL_0670463P,,25,35,48.89550301,7.154064328,"48,86983648","7,269517905",8.911574883
0672961E,"E.E.PU ",ECOLE ELEMENTAIRE,ECOLE ELEMENTAIRE GUNGWILLER,ECOLE ELEMENTAIRE PUBLIQUE GUNGWILLER,COLLEGE DES RACINES ET DES AILES,"ECOLE ELEMENTAIRE PUBLIQUE ",,Hors EP,,7 rue de la Fontaine,,67320,GUNGWILLER,0,0,1er degré,Public,ce.0672961E@ac-strasbourg.fr,0388007328,,,VOSGES DU NORD,Alsace Bossue,Alsace Bossue,OUEST,SARRE-UNION Pierre Claude,OUEST 5,NEGELE Lucie,PIAL_0670463P,,9,14,48.88173961,7.158249687,"48,86983648","7,269517905",8.244227572
0670494Y,"E.P.PU ",ECOLE PRIMAIRE,ECOLE PRIMAIRE WEYER,ECOLE PRIMAIRE PUBLIQUE WEYER,COLLEGE DES RACINES ET DES AILES,"ECOLE PRIMAIRE PUBLIQUE ",,Hors EP,,4 rue des Ecoles,,67320,WEYER,0,0,1er degré,Public,ce.0670494Y@ac-strasbourg.fr,0388007057,,,VOSGES DU NORD,Alsace Bossue,Alsace Bossue,OUEST,SARRE-UNION Pierre Claude,OUEST 5,NEGELE Lucie,PIAL_0670463P,,66,76,48.85417446,7.159489681,"48,86983648","7,269517905",8.235076257
0670485N,"E.E.PU ",ECOLE PRIMAIRE,ECOLE PRIMAIRE REXINGEN,ECOLE PRIMAIRE PUBLIQUE REXINGEN,COLLEGE DES RACINES ET DES AILES,"ECOLE PRIMAIRE PUBLIQUE ",,Hors EP,,37 rue Principale,,67320,REXINGEN,0,0,1er degré,Public,ce.0670485N@ac-strasbourg.fr,0388017580,,,VOSGES DU NORD,Alsace Bossue,Alsace Bossue,OUEST,SARRE-UNION Pierre Claude,OUEST 5,NEGELE Lucie,PIAL_0670463P,,19,20,48.90118067,7.179337189,"48,86983648","7,269517905",7.458285792
0670508N,"E.E.PU ",ECOLE PRIMAIRE,ECOLE PRIMAIRE PFALZWEYER,ECOLE PRIMAIRE PUBLIQUE PFALZWEYER,COLLEGE DES RACINES ET DES AILES,"ECOLE PRIMAIRE PUBLIQUE ",,Hors EP,,40 rue Principale,,67320,PFALZWEYER,0,0,1er degré,Public,ce.0670508N@ac-strasbourg.fr,0670166975,,,VOSGES DU NORD,Alsace Bossue,Alsace Bossue,OUEST,SARRE-UNION Pierre Claude,OUEST 5,NEGELE Lucie,PIAL_0670463P,,29,29,48.80537216,7.258696532,"48,86983648","7,269517905",7.21172574
0670469W,"E.E.PU ",ECOLE PRIMAIRE,ECOLE PRIMAIRE BETTWILLER,ECOLE PRIMAIRE PUBLIQUE BETTWILLER,COLLEGE DES RACINES ET DES AILES,"ECOLE PRIMAIRE PUBLIQUE ",,Hors EP,,26 rue Principale,,67320,BETTWILLER,0,0,1er degré,Public,ce.0670469W@ac-strasbourg.fr,0388006985,,,VOSGES DU NORD,Alsace Bossue,Alsace Bossue,OUEST,SARRE-UNION Pierre Claude,OUEST 5,NEGELE Lucie,PIAL_0670463P,,14,22,48.88472613,7.179043617,"48,86983648","7,269517905",6.820391424
0672980A,"E.P.PU ",ECOLE ELEMENTAIRE PUBLIQUE LE REHTHAL,ECOLE ELEMENTAIRE PUBLIQUE LE REHTHAL ESCHBOURG,ECOLE PRIMAIRE PUBLIQUE LE REHTHAL ESCHBOURG,COLLEGE DES RACINES ET DES AILES,"ECOLE PRIMAIRE PUBLIQUE ","LE REHTHAL ",Hors EP,,Rue Principale,,67320,ESCHBOURG,0,0,1er degré,Public,ce.0672980A@ac-strasbourg.fr,0388701075,,,VOSGES DU NORD,Alsace Bossue,Alsace Bossue,OUEST,SARRE-UNION Pierre Claude,OUEST 5,NEGELE Lucie,PIAL_0670463P,,36,52,48.81658921,7.284508937,"48,86983648","7,269517905",6.021601978
0670464R,"E.E.PU ",ECOLE PRIMAIRE PUBLIQUE,ECOLE PRIMAIRE PUBLIQUE ADAMSWILLER,ECOLE PRIMAIRE PUBLIQUE ADAMSWILLER,COLLEGE DES RACINES ET DES AILES,"ECOLE PRIMAIRE PUBLIQUE ",,Hors EP,,28 rue Principale,,67320,ADAMSWILLER,0,0,1er degré,Public,ce.0670464R@ac-strasbourg.fr,0388017567,,,VOSGES DU NORD,Alsace Bossue,Alsace Bossue,OUEST,SARRE-UNION Pierre Claude,OUEST 5,NEGELE Lucie,PIAL_0670463P,,21,24,48.90250313,7.199567511,"48,86983648","7,269517905",6.27318392
0672679Y,"E.M.PU ",ECOLE MATERNELLE,ECOLE MATERNELLE DURSTEL,ECOLE MATERNELLE PUBLIQUE DURSTEL,COLLEGE DES RACINES ET DES AILES,"ECOLE MATERNELLE PUBLIQUE ",,Hors EP,,9 rue Principale,,67320,DURSTEL,0,0,1er degré,Public,ce.0672679Y@ac-strasbourg.fr,0388017407,,,VOSGES DU NORD,Alsace Bossue,Alsace Bossue,OUEST,,OUEST 5,NEGELE Lucie,PIAL_0670463P,,41,37,48.89096402,7.19831637,"48,86983648","7,269517905",5.712112923
0670463P,"E.P.PU ",ECOLE PRIMAIRE PUBLIQUE,ECOLE PRIMAIRE PUBLIQUE DRULINGEN,ECOLE PRIMAIRE DRULINGEN,COLLEGE DES RACINES ET DES AILES,"ECOLE PRIMAIRE ",,Hors EP,,Rue de l'Ecole,,67320,DRULINGEN,0,1,1er degré,Public,ce.0670463P@ac-strasbourg.fr,0388006187,,,VOSGES DU NORD,Alsace Bossue,Alsace Bossue,OUEST,SARRE-UNION Pierre Claude,OUEST 5,NEGELE Lucie,PIAL_0670463P,,185,149,48.86818161,7.192608407,"48,86983648","7,269517905",5.628331185
0670014B,"CLG ",COLLEGE DES RACINES ET DES AILES,COLLEGE DES RACINES ET DES AILES DRULINGEN,COLLEGE DES RACINES ET DES AILES DRULINGEN,COLLEGE DES RACINES ET DES AILES,"COLLEGE ","DES RACINES ET DES AILES ",Hors EP,,1 rue du Collège,,67320,DRULINGEN,98.5,1,2nd degré,Public,ce.0670014B@ac-strasbourg.fr,0388006292,MATHILDE PICCOLETTI,SANS INTERNAT AVEC DEMI PENSION,VOSGES DU NORD,Alsace Bossue,Alsace Bossue,OUEST,,OUEST 5,NEGELE Lucie,PIAL_0670463P,,364,349,48.86753279,7.195290427,"48,86983648","7,269517905",5.435228641
0670465S,"E.E.PU ",ECOLE PRIMAIRE,ECOLE PRIMAIRE ASSWILLER,ECOLE PRIMAIRE PUBLIQUE ASSWILLER,COLLEGE DES RACINES ET DES AILES,"ECOLE PRIMAIRE PUBLIQUE ",,Hors EP,,10 rue de Durstel,,67320,ASSWILLER,0,0,1er degré,Public,ce.0670465S@ac-strasbourg.fr,0388017779,,,VOSGES DU NORD,Alsace Bossue,Alsace Bossue,OUEST,SARRE-UNION Pierre Claude,OUEST 5,NEGELE Lucie,PIAL_0670463P,,18,20,48.8808919,7.219894461,"48,86983648","7,269517905",3.831654223
0670507M,"E.P.PU ",ECOLE PRIMAIRE DE LA PORTE DES VOSGES DU NORD,ECOLE PRIMAIRE DE LA PORTE DES VOSGES DU NORD PETERSBACH,ECOLE PRIMAIRE PUBLIQUE LES CASTORS PETERSBACH,COLLEGE DES RACINES ET DES AILES,"ECOLE MATERNELLE PUBLIQUE ","LES CASTORS ",Hors EP,,6 rue Principale,,67290,PETERSBACH,0,0,1er degré,Public,ce.0670507M@ac-strasbourg.fr,0388704641,,,VOSGES DU NORD,Alsace Bossue,Alsace Bossue,OUEST,,OUEST 5,NEGELE Lucie,PIAL_0670463P,,166,44,48.86962195,7.26790517,"48,86983648","7,269517905",0.12034501
0672799D,"E.P.PU ",ECOLE PRIMAIRE LES COQUELICOTS,ECOLE PRIMAIRE LES COQUELICOTS MOMMENHEIM,ECOLE PRIMAIRE PUBLIQUE MOMMENHEIM,COLLEGE MARCEL WEINUM BRUMATH,"ECOLE PRIMAIRE PUBLIQUE ",,Hors EP,,11 rue de l'Eglise,,67670,MOMMENHEIM,0,0,1er degré,Public,ce.0672799D@ac-strasbourg.fr,0388515370,,,HAGUENAU SUD,BASSE-ZORN,Basse-Zorn,OUEST,BOUXWILLER Le Bastberg,STRASBOURG NORD 3,LUZICK Michèle,PIAL_0670942K,,219,111,48.7576452,7.643426471,"48,73431328","7,736026999",7.268425086
0673082L,"E.P.PU ",ECOLE INTERCOMMUNALE ROSE DES VENTS,ECOLE INTERCOMMUNALE ROSE DES VENTS DONNENHEIM,ECOLE PRIMAIRE ECOLE INTERCOMMUNALE ROSE DES DONNENHEIM,COLLEGE MARCEL WEINUM BRUMATH,"ECOLE PRIMAIRE ","ECOLE INTERCOMMUNALE ROSE DES ",Hors EP,,1 rue des Cigognes,,67170,DONNENHEIM,0,0,1er degré,Public,ce.0673082L@ac-strasbourg.fr,0,,,HAGUENAU SUD,BASSE-ZORN,Basse-Zorn,OUEST,MUNDOLSHEIM Paul Emile Victor,STRASBOURG NORD 3,LUZICK Michèle,PIAL_0670942K,,168,163,48.71550998,7.65507562,"48,73431328","7,736026999",6.295336422
0670864A,"E.P.PU ",ECOLE PRIMAIRE,ECOLE PRIMAIRE BATZENDORF,ECOLE PRIMAIRE PUBLIQUE BATZENDORF,COLLEGE KLEBER,"ECOLE PRIMAIRE PUBLIQUE ",,Hors EP,,3 rue du Moulin,,67500,BATZENDORF,0,0,1er degré,Public,ce.0670864A@ac-strasbourg.fr,0388738545,,,HAGUENAU SUD,BASSE-ZORN,Basse-Zorn,OUEST,HAGUENAU Kléber,NORD 5,BELLO Anaël,PIAL_0671960S,,101,109,48.78430668,7.706661982,"48,73431328","7,736026999",5.961206204
0672012Y,"CLG ",COLLEGE BALDUNG GRIEN,COLLEGE BALDUNG GRIEN HOERDT,COLLEGE BALDUNG GRIEN HOERDT,COLLEGE BALDUNG GRIEN,"COLLEGE ","BALDUNG GRIEN ",Hors EP,,6 rue des Alouettes,,67720,HOERDT,116.5,0,2nd degré,Public,ce.0672012Y@ac-strasbourg.fr,0388513512,PATRICIA KARL,SANS INTERNAT AVEC DEMI PENSION,HAGUENAU SUD,BASSE-ZORN,Basse-Zorn,OUEST,,STRASBOURG NORD 3,LUZICK Michèle,PIAL_0672012Y,,414,395,48.69990647,7.791025952,"48,73431328","7,736026999",5.560390214
0673057J,"E.E.PU ",ECOLE PRIMAIRE IM LEH,ECOLE PRIMAIRE IM LEH HOERDT,ECOLE PRIMAIRE PUBLIQUE IM LEH HOERDT,COLLEGE BALDUNG GRIEN,"ECOLE PRIMAIRE PUBLIQUE ","IM LEH ",Hors EP,,26 rue d'Eckwersheim,,67720,HOERDT,0,0,1er degré,Public,ce.0673057J@ac-strasbourg.fr,0388592340,,,HAGUENAU SUD,BASSE-ZORN,Basse-Zorn,OUEST,MUNDOLSHEIM Paul Emile Victor,STRASBOURG NORD 3,LUZICK Michèle,PIAL_0672012Y,,227,238,48.69540266,7.780530383,"48,73431328","7,736026999",5.420406745
0670309X,"E.M.PU ",ECOLE MATERNELLE LES CYGNES,ECOLE MATERNELLE LES CYGNES WEYERSHEIM,ECOLE MATERNELLE PUBLIQUE LES CYGNES WEYERSHEIM,COLLEGE BALDUNG GRIEN,"ECOLE MATERNELLE PUBLIQUE ","LES CYGNES ",Hors EP,,9 rue des Fossés,,67720,WEYERSHEIM,0,0,1er degré,Public,ce.0670309X@ac-strasbourg.fr,0388513536,,,HAGUENAU SUD,BASSE-ZORN,Basse-Zorn,OUEST,,STRASBOURG NORD 3,LUZICK Michèle,PIAL_0672012Y,,98,121,48.7144156,7.803458392,"48,73431328","7,736026999",5.418605701
0670304S,"E.M.PU ",ECOLE MATERNELLE LES COURLIS,ECOLE MATERNELLE LES COURLIS HOERDT,ECOLE MATERNELLE PUBLIQUE LES COURLIS HOERDT,COLLEGE BALDUNG GRIEN,"ECOLE MATERNELLE PUBLIQUE ","LES COURLIS ",Hors EP,,20 rue du Traineau,,67720,HOERDT,0,0,1er degré,Public,ce.0670304S@ac-strasbourg.fr,0388513862,,,HAGUENAU SUD,BASSE-ZORN,Basse-Zorn,OUEST,,STRASBOURG NORD 3,LUZICK Michèle,PIAL_0672012Y,,130,138,48.69701168,7.780673634,"48,73431328","7,736026999",5.285168908
0672137J,"E.E.PU ",ECOLE PRIMAIRE,ECOLE PRIMAIRE WEYERSHEIM,ECOLE PRIMAIRE PUBLIQUE WEYERSHEIM,COLLEGE BALDUNG GRIEN,"ECOLE PRIMAIRE PUBLIQUE ",,Hors EP,,88 rue Baldung Grien,,67720,WEYERSHEIM,0,0,1er degré,Public,ce.0672137J@ac-strasbourg.fr,0388517325,,,HAGUENAU SUD,BASSE-ZORN,Basse-Zorn,OUEST,MUNDOLSHEIM Paul Emile Victor,STRASBOURG NORD 3,LUZICK Michèle,PIAL_0672012Y,,212,200,48.7186596,7.801964304,"48,73431328","7,736026999",5.140194604
0671028D,"E.P.PU ",ECOLE PRIMAIRE LES PRES,ECOLE PRIMAIRE LES PRES BERNOLSHEIM,ECOLE PRIMAIRE PUBLIQUE LES PRES BERNOLSHEIM,COLLEGE MARCEL WEINUM BRUMATH,"ECOLE PRIMAIRE PUBLIQUE ","LES PRES ",Hors EP,,5 A rue de l'Ecole,,67170,BERNOLSHEIM,0,0,1er degré,Public,ce.0671028D@ac-strasbourg.fr,0388683234,,,HAGUENAU SUD,BASSE-ZORN,Basse-Zorn,OUEST,MUNDOLSHEIM Paul Emile Victor,STRASBOURG NORD 3,LUZICK Michèle,PIAL_0670942K,,69,64,48.75614112,7.687778678,"48,73431328","7,736026999",4.29026712
0672276K,"E.P.PU ",ECOLE PRIMAIRE PUBLIQUE,ECOLE PRIMAIRE PUBLIQUE NIEDERSCHAEFFOLSHEIM,ECOLE PRIMAIRE PUBLIQUE NIEDERSCHAEFFOLSHEIM,COLLEGE KLEBER,"ECOLE PRIMAIRE PUBLIQUE ",,Hors EP,,24 route de Bischwiller,,67500,NIEDERSCHAEFFOLSHEIM,0,0,1er degré,Public,ce.0672276K@ac-strasbourg.fr,0388738385,,,HAGUENAU SUD,BASSE-ZORN,Basse-Zorn,OUEST,HAGUENAU Kléber,NORD 5,BELLO Anaël,PIAL_0671960S,,106,77,48.77194145,7.740848836,"48,73431328","7,736026999",4.198967725
0672490T,"E.E.PU ",ECOLE PRIMAIRE UICCOBROCHO,ECOLE PRIMAIRE UICCOBROCHO WEITBRUCH,ECOLE PRIMAIRE PUBLIQUE UICCOBROCHO WEITBRUCH,COLLEGE KLEBER,"ECOLE PRIMAIRE PUBLIQUE ","UICCOBROCHO ",Hors EP,,94 rue Principale,,67500,WEITBRUCH,0,0,1er degré,Public,ce.0672490T@ac-strasbourg.fr,0388724944,,,HAGUENAU SUD,BASSE-ZORN,Basse-Zorn,OUEST,HAGUENAU Kléber,NORD 5,BELLO Anaël,PIAL_0671960S,,129,151,48.75494525,7.77707923,"48,73431328","7,736026999",3.784698367
0672786P,"E.M.PU ",ECOLE MATERNELLE,ECOLE MATERNELLE WEITBRUCH,ECOLE MATERNELLE PUBLIQUE WEITBRUCH,COLLEGE KLEBER,"ECOLE MATERNELLE PUBLIQUE ",,Hors EP,,104 rue Principale,,67500,WEITBRUCH,0,0,1er degré,Public,ce.0672786P@ac-strasbourg.fr,0388723440,,,HAGUENAU SUD,BASSE-ZORN,Basse-Zorn,OUEST,,NORD 5,BELLO Anaël,PIAL_0671960S,,88,90,48.75391262,7.77602257,"48,73431328","7,736026999",3.653767811
0671008G,"E.P.PU ",ECOLE PRIMAIRE INTERCOMMUNALE LES VERGERS,ECOLE PRIMAIRE INTERCOMMUNALE LES VERGERS KRIEGSHEIM,ECOLE PRIMAIRE PUBLIQUE INTERCOMMUNALE LES VERGERS KRIEGSHEIM,COLLEGE MARCEL WEINUM BRUMATH,"ECOLE PRIMAIRE PUBLIQUE ","INTERCOMMUNALE LES VERGERS ",Hors EP,,19 rue de Rottelsheim,,67170,KRIEGSHEIM,0,0,1er degré,Public,ce.0671008G@ac-strasbourg.fr,0388510187,,,HAGUENAU SUD,BASSE-ZORN,Basse-Zorn,OUEST,MUNDOLSHEIM Paul Emile Victor,STRASBOURG NORD 3,LUZICK Michèle,PIAL_0670942K,,108,105,48.75786194,7.7220683,"48,73431328","7,736026999",2.811405377
0670942K,"E.E.PU ",ECOLE PRIMAIRE LES REMPARTS,ECOLE PRIMAIRE LES REMPARTS BRUMATH,ECOLE PRIMAIRE PUBLIQUE LES REMPARTS BRUMATH,COLLEGE MARCEL WEINUM BRUMATH,"ECOLE PRIMAIRE PUBLIQUE ","LES REMPARTS ",Hors EP,,39 rue des Remparts,,67170,BRUMATH,0,0,1er degré,Public,ce.0670942K@ac-strasbourg.fr,0388510585,,,HAGUENAU SUD,BASSE-ZORN,Basse-Zorn,OUEST,MUNDOLSHEIM Paul Emile Victor,STRASBOURG NORD 3,LUZICK Michèle,PIAL_0670942K,,77,91,48.73297493,7.705498875,"48,73431328","7,736026999",2.24386601
0670302P,"E.M.PU ",ECOLE MATERNELLE,ECOLE MATERNELLE GEUDERTHEIM,ECOLE MATERNELLE PUBLIQUE GEUDERTHEIM,COLLEGE BALDUNG GRIEN,"ECOLE MATERNELLE PUBLIQUE ",,Hors EP,,81 rue du Général de Gaulle,,67170,GEUDERTHEIM,0,0,1er degré,Public,ce.0670302P@ac-strasbourg.fr,0388510070,,,HAGUENAU SUD,BASSE-ZORN,Basse-Zorn,OUEST,,STRASBOURG NORD 3,LUZICK Michèle,PIAL_0672012Y,,109,87,48.72307503,7.755481947,"48,73431328","7,736026999",1.896789789
0672664G,"E.E.PU ",ECOLE PRIMAIRE,ECOLE PRIMAIRE GEUDERTHEIM,ECOLE PRIMAIRE PUBLIQUE GEUDERTHEIM,COLLEGE BALDUNG GRIEN,"ECOLE PRIMAIRE PUBLIQUE ",,Hors EP,,74 rue du Général de Gaulle,,67170,GEUDERTHEIM,0,0,1er degré,Public,ce.0672664G@ac-strasbourg.fr,0388519360,,,HAGUENAU SUD,BASSE-ZORN,Basse-Zorn,OUEST,MUNDOLSHEIM Paul Emile Victor,STRASBOURG NORD 3,LUZICK Michèle,PIAL_0672012Y,,152,172,48.72300944,7.755364296,"48,73431328","7,736026999",1.895136402
0672663F,"E.E.PU ",ECOLE PRIMAIRE ROBERT SCHUMAN,ECOLE PRIMAIRE ROBERT SCHUMAN BRUMATH,ECOLE PRIMAIRE PUBLIQUE ROBERT SCHUMAN BRUMATH,COLLEGE MARCEL WEINUM BRUMATH,"ECOLE PRIMAIRE PUBLIQUE ","ROBERT SCHUMAN ",Hors EP,,10 rue du Château,,67170,BRUMATH,0,1,1er degré,Public,ce.0672663F@ac-strasbourg.fr,0388518467,,,HAGUENAU SUD,BASSE-ZORN,Basse-Zorn,OUEST,MUNDOLSHEIM Paul Emile Victor,STRASBOURG NORD 3,LUZICK Michèle,PIAL_0670942K,,286,277,48.73128388,7.712292748,"48,73431328","7,736026999",1.772987586
0670299L,"E.M.PU ",ECOLE MATERNELLE LES CIGOGNES,ECOLE MATERNELLE LES CIGOGNES BRUMATH,ECOLE MATERNELLE PUBLIQUE LES CIGOGNES BRUMATH,COLLEGE MARCEL WEINUM BRUMATH,"ECOLE MATERNELLE PUBLIQUE ","LES CIGOGNES ",Hors EP,,4 rue Charles Diemer,,67170,BRUMATH,0,0,1er degré,Public,ce.0670299L@ac-strasbourg.fr,0388518627,,,HAGUENAU SUD,BASSE-ZORN,Basse-Zorn,OUEST,,STRASBOURG NORD 3,LUZICK Michèle,PIAL_0670942K,,117,121,48.7316133,7.712278916,"48,73431328","7,736026999",1.767388431
0670009W,"CLG ",COLLEGE MARCEL WEINUM,COLLEGE MARCEL WEINUM BRUMATH,COLLEGE MARCEL WEINUM BRUMATH,COLLEGE MARCEL WEINUM BRUMATH,"COLLEGE ","MARCEL WEINUM ",Hors EP,,3 rue du Collège,,67170,BRUMATH,115.6,1,2nd degré,Public,ce.0670009W@ac-strasbourg.fr,0388511284,SERGE FENDER,SANS INTERNAT AVEC DEMI PENSION,HAGUENAU SUD,BASSE-ZORN,Basse-Zorn,OUEST,,STRASBOURG NORD 3,LUZICK Michèle,PIAL_0670009W,,674,685,48.73130162,7.714533547,"48,73431328","7,736026999",1.611529864
0670300M,"E.M.PU ",ECOLE MATERNELLE L ARC EN CIEL,ECOLE MATERNELLE L ARC EN CIEL BRUMATH,ECOLE MATERNELLE PUBLIQUE L'ARC EN CIEL BRUMATH,COLLEGE MARCEL WEINUM BRUMATH,"ECOLE MATERNELLE PUBLIQUE ","L'ARC EN CIEL ",Hors EP,,Avenue de l'Europe,,67170,BRUMATH,0,0,1er degré,Public,ce.0670300M@ac-strasbourg.fr,0388510326,,,HAGUENAU SUD,BASSE-ZORN,Basse-Zorn,OUEST,,STRASBOURG NORD 3,LUZICK Michèle,PIAL_0670942K,,204,206,48.73485438,7.716833791,"48,73431328","7,736026999",1.408884499
0670948S,"E.E.PU ",ECOLE PRIMAIRE PIERRE PFLIMLIN,ECOLE PRIMAIRE PIERRE PFLIMLIN BRUMATH,ECOLE PRIMAIRE PUBLIQUE PIERRE PFLIMLIN BRUMATH,COLLEGE MARCEL WEINUM BRUMATH,"ECOLE PRIMAIRE PUBLIQUE ","PIERRE PFLIMLIN ",Hors EP,,Rue de Dingolfing,,67170,BRUMATH,0,0,1er degré,Public,ce.0670948S@ac-strasbourg.fr,0388641804,,,HAGUENAU SUD,BASSE-ZORN,Basse-Zorn,OUEST,MUNDOLSHEIM Paul Emile Victor,STRASBOURG NORD 3,LUZICK Michèle,PIAL_0670942K,,218,198,48.73480604,7.717668497,"48,73431328","7,736026999",1.347498265
0670340F,"E.M.PU ",ECOLE MATERNELLE LES PETITS MATELOTS,ECOLE MATERNELLE LES PETITS MATELOTS OFFENDORF,ECOLE MATERNELLE PUBLIQUE LES PETITS MATELOTS OFFENDORF,COLLEGE SIMONE VEIL,"ECOLE MATERNELLE PUBLIQUE ","LES PETITS MATELOTS ",Hors EP,,10 rue des Cygnes,,67850,OFFENDORF,0,0,1er degré,Public,ce.0670340F@ac-strasbourg.fr,0388969838,,,LA WANTZENAU - RHIN,BISCHWILLER,Ill et Rhin,NORD,,STRASBOURG NORD 3,LUZICK Michèle,PIAL_0670875M,,103,82,48.71119115,7.919935974,"48,75969077","7,85956586",6.977472041
0672934A,"E.E.PU ",ECOLE ELEMENTAIRE LES BOUTONS D OR,ECOLE ELEMENTAIRE LES BOUTONS D OR OFFENDORF,ECOLE ELEMENTAIRE PUBLIQUE LES BOUTONS D'OR OFFENDORF,COLLEGE SIMONE VEIL,"ECOLE ELEMENTAIRE PUBLIQUE ","LES BOUTONS D'OR ",Hors EP,,1 rue des Ecoles,,67850,OFFENDORF,0,0,1er degré,Public,ce.0672934A@ac-strasbourg.fr,0388597784,,,LA WANTZENAU - RHIN,BISCHWILLER,Ill et Rhin,NORD,BISCHWILLER André Maurois,STRASBOURG NORD 3,LUZICK Michèle,PIAL_0670875M,,140,155,48.7112611,7.913195179,"48,75969077","7,85956586",6.668455524
0670910A,"E.E.PU ",ECOLE PRIMAIRE LES HIRONDELLES,ECOLE PRIMAIRE LES HIRONDELLES HERRLISHEIM,ECOLE PRIMAIRE PUBLIQUE LES HIRONDELLES HERRLISHEIM,COLLEGE SIMONE VEIL,"ECOLE PRIMAIRE PUBLIQUE ","LES HIRONDELLES ",Hors EP,,Impasse Herrmann,,67850,HERRLISHEIM,0,0,1er degré,Public,ce.0670910A@ac-strasbourg.fr,0388969606,,,LA WANTZENAU - RHIN,BISCHWILLER,Ill et Rhin,NORD,BISCHWILLER André Maurois,STRASBOURG NORD 3,LUZICK Michèle,PIAL_0670875M,,229,255,48.73010889,7.906198883,"48,75969077","7,85956586",4.744617291
0672874K,"E.M.PU ",ECOLE MATERNELLE,ECOLE MATERNELLE HERRLISHEIM,ECOLE MATERNELLE PUBLIQUE HERRLISHEIM,COLLEGE SIMONE VEIL,"ECOLE MATERNELLE PUBLIQUE ",,Hors EP,,2 A rue du Collège,,67850,HERRLISHEIM,0,0,1er degré,Public,ce.0672874K@ac-strasbourg.fr,0388969709,,,LA WANTZENAU - RHIN,BISCHWILLER,Ill et Rhin,NORD,,STRASBOURG NORD 3,LUZICK Michèle,PIAL_0670875M,,129,111,48.73092192,7.902185921,"48,75969077","7,85956586",4.472028153
0671911N,"CLG ",COLLEGE SIMONE VEIL,COLLEGE SIMONE VEIL HERRLISHEIM,COLLEGE SIMONE VEIL HERRLISHEIM,COLLEGE SIMONE VEIL,"COLLEGE ","SIMONE VEIL ",Hors EP,,1 rue du Collège,,67850,HERRLISHEIM,116.5,0,2nd degré,Public,ce.0671911N@ac-strasbourg.fr,0390293729,CARINE ROUSSEL,SANS INTERNAT AVEC DEMI PENSION,LA WANTZENAU - RHIN,BISCHWILLER,Ill et Rhin,NORD,,STRASBOURG NORD 3,LUZICK Michèle,PIAL_0670875M,,327,333,48.73030938,7.899834397,"48,75969077","7,85956586",4.403594036
0670972T,"E.P.PU ",ECOLE PRIMAIRE,ECOLE PRIMAIRE KURTZENHOUSE,ECOLE PRIMAIRE PUBLIQUE KURTZENHOUSE,COLLEGE ANDRE MAUROIS,"ECOLE PRIMAIRE PUBLIQUE ",,Hors EP,,24 rue Principale,,67240,KURTZENHOUSE,0,0,1er degré,Public,ce.0670972T@ac-strasbourg.fr,0388724615,,,LA WANTZENAU - RHIN,BISCHWILLER,Moder-Potiers,NORD,BISCHWILLER André Maurois,NORD 1,FUCHS Annie,PIAL_0670913D,,85,91,48.73990244,7.808254903,"48,75969077","7,85956586",4.358172695
0672027P,"E.E.PU ",ECOLE PRIMAIRE 14 RUE DES SOEURS,ECOLE PRIMAIRE 14 RUE DES SOEURS KALTENHOUSE,ECOLE ELEMENTAIRE PUBLIQUE KALTENHOUSE,COLLEGE ANDRE MAUROIS,"ECOLE PRIMAIRE PUBLIQUE ",,Hors EP,,14 rue des Soeurs,,67240,KALTENHOUSE,0,0,1er degré,Public,ce.0672027P@ac-strasbourg.fr,0388632739,,,LA WANTZENAU - RHIN,BISCHWILLER,Moder-Potiers,NORD,BISCHWILLER André Maurois,NORD 1,FUCHS Annie,PIAL_0670913D,,118,134,48.79163671,7.836674338,"48,75969077","7,85956586",3.92837965
0671771L,"E.M.PU ",ECOLE PRIMAIRE 12 RUE DES SOEURS,ECOLE PRIMAIRE 12 RUE DES SOEURS KALTENHOUSE,ECOLE MATERNELLE PUBLIQUE KALTENHOUSE,COLLEGE ANDRE MAUROIS,"ECOLE PRIMAIRE ",,Hors EP,,12 rue des Soeurs,,67240,KALTENHOUSE,0,0,1er degré,Public,ce.0671771L@ac-strasbourg.fr,0388635868,,,LA WANTZENAU - RHIN,BISCHWILLER,Moder-Potiers,NORD,,NORD 1,FUCHS Annie,PIAL_0670913D,,64,72,48.79137626,7.836497424,"48,75969077","7,85956586",3.907804198
0672243Z,"E.P.PU ",ECOLE PRIMAIRE PUBLIQUE,ECOLE PRIMAIRE PUBLIQUE GRIES,ECOLE PRIMAIRE PUBLIQUE GRIES,COLLEGE ANDRE MAUROIS,"ECOLE PRIMAIRE PUBLIQUE ",,Hors EP,,58 rue Principale,,67240,GRIES,0,0,1er degré,Public,ce.0672243Z@ac-strasbourg.fr,00388721390,,,LA WANTZENAU - RHIN,BISCHWILLER,Moder-Potiers,NORD,BISCHWILLER André Maurois,NORD 1,FUCHS Annie,PIAL_0670913D,,125,138,48.7532704,7.813939471,"48,75969077","7,85956586",3.420050669
0670303R,"E.M.PU ",ECOLE MATERNELLE,ECOLE MATERNELLE GRIES,ECOLE MATERNELLE PUBLIQUE GRIES,COLLEGE ANDRE MAUROIS,"ECOLE MATERNELLE PUBLIQUE ",,Hors EP,,62 rue Principale,,67240,GRIES,0,0,1er degré,Public,ce.0670303R@ac-strasbourg.fr,0388724539,,,LA WANTZENAU - RHIN,BISCHWILLER,Moder-Potiers,NORD,,NORD 1,FUCHS Annie,PIAL_0670913D,,103,67,48.75325283,7.814977604,"48,75969077","7,85956586",3.346081198
0671967Z,"E.E.PU ",ECOLE PRIMAIRE,ECOLE PRIMAIRE OBERHOFFEN SUR MODER,ECOLE PRIMAIRE PUBLIQUE OBERHOFFEN SUR MODER,COLLEGE ANDRE MAUROIS,"ECOLE PRIMAIRE PUBLIQUE ",,Hors EP,,1 place de l'Eglise,,67240,OBERHOFFEN SUR MODER,0,0,1er degré,Public,ce.0671967Z@ac-strasbourg.fr,0388630876,,,LA WANTZENAU - RHIN,BISCHWILLER,Moder-Potiers,NORD,BISCHWILLER André Maurois,NORD 1,FUCHS Annie,PIAL_0670913D,,218,209,48.78282532,7.863387613,"48,75969077","7,85956586",2.587645968
0670339E,"E.M.PU ",ECOLE MATERNELLE,ECOLE MATERNELLE OBERHOFFEN SUR MODER,ECOLE MATERNELLE PUBLIQUE OBERHOFFEN SUR MODER,COLLEGE ANDRE MAUROIS,"ECOLE MATERNELLE PUBLIQUE ",,Hors EP,,7 rue du Tabac,,67240,OBERHOFFEN SUR MODER,0,0,1er degré,Public,ce.0670339E@ac-strasbourg.fr,0388631221,,,LA WANTZENAU - RHIN,BISCHWILLER,Moder-Potiers,NORD,,NORD 1,FUCHS Annie,PIAL_0670913D,,152,128,48.7814041,7.867657761,"48,75969077","7,85956586",2.486174448
0670005S,"LGT ",LYCEE GENERAL ET TECHNOLOGIQUE ANDRE MAUROIS,LYCEE GENERAL ET TECHNOLOGIQUE ANDRE MAUROIS BISCHWILLER,LYCEE GENERAL ET TECHNOLOGIQUE ANDRE MAUROIS BISCHWILLER,,LYCEE GENERAL ET TECHNOLOGIQUE,"ANDRE MAUROIS ",Sans objet,,1 rue du Lycée,,67242,BISCHWILLER,108.5,0,2nd degré,Public,ce.0670005S@ac-strasbourg.fr,0388062767,JACKY SCHLIENGER,SANS INTERNAT AVEC DEMI PENSION,LA WANTZENAU - RHIN,BISCHWILLER,Moder-Potiers,NORD,,NORD 1,FUCHS Annie,PIAL_0672130B,,695,721,48.77832938,7.846765243,"48,75969077","7,85956586",2.274957284
0672130B,"CLG ",COLLEGE ANDRE MAUROIS,COLLEGE ANDRE MAUROIS BISCHWILLER,COLLEGE ANDRE MAUROIS BISCHWILLER,COLLEGE ANDRE MAUROIS,"COLLEGE ","ANDRE MAUROIS ",REP,REP,1 rue du Lycée,,67242,BISCHWILLER,89.1,1,2nd degré,Public,ce.0672130B@ac-strasbourg.fr,0388062767,JACKY SCHLIENGER,SANS INTERNAT AVEC DEMI PENSION,LA WANTZENAU - RHIN,BISCHWILLER,Moder-Potiers,NORD,,NORD 1,FUCHS Annie,PIAL_0672130B,91,855,910,48.77832938,7.846765243,"48,75969077","7,85956586",2.274957284
0672084B,"E.M.PU ",ECOLE MATERNELLE HASENSPRUNG,ECOLE MATERNELLE HASENSPRUNG BISCHWILLER,ECOLE MATERNELLE PUBLIQUE HASENSPRUNG BISCHWILLER,COLLEGE ANDRE MAUROIS,"ECOLE MATERNELLE PUBLIQUE ","HASENSPRUNG ",Hors EP,,25 rue du Lièvre,,67240,BISCHWILLER,0,0,1er degré,Public,ce.0672084B@ac-strasbourg.fr,0388631170,,,LA WANTZENAU - RHIN,BISCHWILLER,Moder-Potiers,NORD,,NORD 1,FUCHS Annie,PIAL_0670913D,,52,52,48.77587561,7.84257384,"48,75969077","7,85956586",2.188539183
0670006T,"LP LYC METIER ",LYCEE PROFESSIONNEL PHILIPPE CHARLES GOULDEN LYCEE DES METIERS,LYCEE PROFESSIONNEL PHILIPPE CHARLES GOULDEN LYCEE DES METIERS BISCHWILLER,LP LYCEE DES METIERS PHILIPPE-CHARLES GOULDEN BISCHWILLER,,"LP LYCEE DES METIERS ","PHILIPPE-CHARLES GOULDEN ",Sans objet,,2 rue de la piscine,,67241,BISCHWILLER,80.8,1,2nd degré,Public,ce.0670006T@ac-strasbourg.fr,0388635844,CHRISTOPHE KARST,SANS INTERNAT AVEC DEMI PENSION,LA WANTZENAU - RHIN,BISCHWILLER,Moder-Potiers,NORD,,NORD 1,FUCHS Annie,PIAL_0672130B,,25,365,48.77462301,7.852379659,"48,75969077","7,85956586",1.741921121
0670336B,"E.M.PU ",ECOLE MATERNELLE CHERIFI,ECOLE MATERNELLE CHERIFI BISCHWILLER,ECOLE MATERNELLE PUBLIQUE CHERIFI BISCHWILLER,COLLEGE ANDRE MAUROIS,"ECOLE MATERNELLE PUBLIQUE ","CHERIFI ",Hors EP,,4 rue Cherifi,,67240,BISCHWILLER,0,0,1er degré,Public,ce.0670336B@ac-strasbourg.fr,0388632588,,,LA WANTZENAU - RHIN,BISCHWILLER,Moder-Potiers,NORD,,NORD 1,FUCHS Annie,PIAL_0670913D,,83,111,48.7714008,7.851890227,"48,75969077","7,85956586",1.418429272
0670913D,"E.E.PU ",ECOLE PRIMAIRE ERLENBERG,ECOLE PRIMAIRE ERLENBERG BISCHWILLER,ECOLE PRIMAIRE PUBLIQUE ERLENBERG BISCHWILLER,COLLEGE ANDRE MAUROIS,"ECOLE PRIMAIRE PUBLIQUE ","ERLENBERG ",Hors EP,,6a rue des Casernes,,67240,BISCHWILLER,0,0,1er degré,Public,ce.0670913D@ac-strasbourg.fr,0388632461,,,LA WANTZENAU - RHIN,BISCHWILLER,Moder-Potiers,NORD,BISCHWILLER André Maurois,NORD 1,FUCHS Annie,PIAL_0670913D,,201,239,48.77207274,7.857034978,"48,75969077","7,85956586",1.38925189
0672102W,"E.M.PU ",ECOLE MATERNELLE CENTRE,ECOLE MATERNELLE CENTRE BISCHWILLER,ECOLE MATERNELLE PUBLIQUE CENTRE BISCHWILLER,COLLEGE ANDRE MAUROIS,"ECOLE MATERNELLE PUBLIQUE ","CENTRE ",REP,REP,7 rue de la République,,67240,BISCHWILLER,0,0,1er degré,Public,ce.0672102W@ac-strasbourg.fr,0388632111,,,LA WANTZENAU - RHIN,BISCHWILLER,Moder-Potiers,NORD,,NORD 1,FUCHS Annie,PIAL_0670913D,,133,132,48.76912923,7.85377128,"48,75969077","7,85956586",1.13218843
0670332X,"E.M.PU ",ECOLE MATERNELLE LUHBERG,ECOLE MATERNELLE LUHBERG BISCHWILLER,ECOLE MATERNELLE PUBLIQUE LUHBERG BISCHWILLER,COLLEGE ANDRE MAUROIS,"ECOLE MATERNELLE PUBLIQUE ","LUHBERG ",REP,REP,1 rue du Luhberg,,67240,BISCHWILLER,0,0,1er degré,Public,ce.0670332X@ac-strasbourg.fr,0388632477,,,LA WANTZENAU - RHIN,BISCHWILLER,Moder-Potiers,NORD,,NORD 1,FUCHS Annie,PIAL_0670913D,,41,39,48.76512486,7.863017696,"48,75969077","7,85956586",0.655076244
0673080J,"E.E.PU ",GROUPE SCOLAIRE FOCH MENUISIERS,GROUPE SCOLAIRE FOCH MENUISIERS BISCHWILLER,GROUPE SCOLAIRE FOCH-MENUISIERS BISCHWILLER,COLLEGE ANDRE MAUROIS,"GROUPE SCOLAIRE ","FOCH-MENUISIERS ",REP,REP,15 rue des Menuisiers,,67240,BISCHWILLER,0,1,1er degré,Public,ce.0673080J@ac-strasbourg.fr,,,,LA WANTZENAU - RHIN,BISCHWILLER,Moder-Potiers,NORD,BISCHWILLER André Maurois,NORD 1,FUCHS Annie,PIAL_0670913D,,523,551,48.76496495,7.858361511,"48,75969077","7,85956586",0.593068732
0670334Z,"E.M.PU ",ECOLE MATERNELLE REBGARTEN,ECOLE MATERNELLE REBGARTEN BISCHWILLER,ECOLE MATERNELLE PUBLIQUE REBGARTEN BISCHWILLER,COLLEGE ANDRE MAUROIS,"ECOLE MATERNELLE PUBLIQUE ","REBGARTEN ",Hors EP,,9 rue des Pins,,67240,BISCHWILLER,0,0,1er degré,Public,ce.0670334Z@ac-strasbourg.fr,0388632299,,,LA WANTZENAU - RHIN,BISCHWILLER,Moder-Potiers,NORD,,NORD 1,FUCHS Annie,PIAL_0670913D,,68,78,48.75588646,7.855149771,"48,75969077","7,85956586",0.532672304
0670439N,"E.P.PU ",ECOLE PRIMAIRE SCHOEPFLIN,ECOLE PRIMAIRE SCHOEPFLIN STRASBOURG,ECOLE PRIMAIRE PUBLIQUE SCHOEPFLIN STRASBOURG,COLLEGE FOCH,"ECOLE PRIMAIRE PUBLIQUE ","SCHOEPFLIN ",Hors EP,,3 rue de l'Ecrevisse,,67000,STRASBOURG,0,1,1er degré,Public,ce.0670439N@ac-strasbourg.fr,0368985209,,,STRASBOURG 2 + PRIVE,Centre,Centre,EUROMETROPOLE,STRASBOURG Caroline Aigle,STRASBOURG CENTRE 2,GARCIA Frédérique,PIAL_0670438M,,397,396,48.58654167,7.748437619,"48,58254514","7,752358518",0.529779811
0671607H,"CLG PR ",COLLEGE PRIVE NOTRE DAME DE SION,COLLEGE PRIVE NOTRE DAME DE SION STRASBOURG,COLLEGE PRIVE NOTRE DAME DE SION STRASBOURG,,"COLLEGE PRIVE ","NOTRE DAME DE SION ",Hors EP,,8 boulevard de la Dordogne,,67000,STRASBOURG,132.3,1,2nd degré,Privé,Ce.0671607H@ac-strasbourg.fr,0388351753,,,STRASBOURG 2 + PRIVE,Centre,Centre,EUROMETROPOLE,,STRASBOURG CENTRE 2,GARCIA Frédérique,PIAL_0671607H,,592,646,48.58983885,7.766681446,"48,58254514","7,752358518",1.329533801
0671608J,"CLG PR ",COLLEGE PRIVE INSTITUTION LA PROVIDENCE FONDATION PROVIDENCE RIBEAUVILLE,COLLEGE PRIVE INSTITUTION LA PROVIDENCE FONDATION PROVIDENCE RIBEAUVILLE STRASBOURG,COLLEGE PRIVE INSTITUTION LA P FONDATION PROVIDENCE RIBEAUVIL STRASBOURG,,COLLEGE PRIVE INSTITUTION LA P,FONDATION PROVIDENCE RIBEAUVIL,Hors EP,,3 impasse du Tiroir,,67000,STRASBOURG,145.5,0,2nd degré,Privé,ce.0671608J@ac-strasbourg.fr,0388324456,,,STRASBOURG 2 + PRIVE,Centre,Centre,EUROMETROPOLE,,STRASBOURG CENTRE 2,GARCIA Frédérique,PIAL_0672383B,,1167,1176,48.58297321,7.750148416,"48,58254514","7,752358518",0.169399477
0671609K,"LG PR ",COLLEGE EPISCOPAL SAINT ETIENNE LYCEE GENERAL PRIVE,COLLEGE EPISCOPAL SAINT ETIENNE LYCEE GENERAL PRIVE STRASBOURG,LYCEE GENERAL PRIVE COLLEGE EPISCOPAL ST ETIENNE STRASBOURG,,"LYCEE GENERAL PRIVE ","COLLEGE EPISCOPAL ST ETIENNE ",Sans objet,,2 rue de la Pierre large,,67000,STRASBOURG,143.7,0,2nd degré,Privé,Ce.0671609K@ac-strasbourg.fr,0388767588,,,STRASBOURG 2 + PRIVE,Centre,Centre,EUROMETROPOLE,,STRASBOURG CENTRE 2,GARCIA Frédérique,PIAL_0672383B,,643,724,48.58242879,7.755785828,"48,58254514","7,752358518",0.252444757
0671610L,"LGT PR ",LYCEE D ENSEIGNEMENT GENERAL PRIVE INSTITUTION NOTRE DAME,LYCEE D ENSEIGNEMENT GENERAL PRIVE INSTITUTION NOTRE DAME STRASBOURG,LYCEE D'ENSEIGNEMENT GENERAL P INSTITUTION NOTRE DAME STRASBOURG,,LYCEE D'ENSEIGNEMENT GENERAL P,"INSTITUTION NOTRE DAME ",Sans objet,,6 rue des Bonnes gens,,67000,STRASBOURG,140.6,0,2nd degré,Privé,Ce.0671610L@ac-strasbourg.fr,0388238787,,,STRASBOURG 2 + PRIVE,Centre,Centre,EUROMETROPOLE,,STRASBOURG CENTRE 2,GARCIA Frédérique,PIAL_0672383B,,565,518,48.58792111,7.74343233,"48,58254514","7,752358518",0.887937288
0671611M,"LG PR ",LYCEE GENERAL PRIVE INSTITUTION LA DOCTRINE CHRETIENNE,LYCEE GENERAL PRIVE INSTITUTION LA DOCTRINE CHRETIENNE STRASBOURG,LYCEE GENERAL PRIVE INSTIT.LA DOCTRINE CHRETIENNE STRASBOURG,,"LYCEE GENERAL PRIVE ","INSTIT.LA DOCTRINE CHRETIENNE ",Sans objet,,14 rue Brûlée,,67000,STRASBOURG,134.6,0,2nd degré,Privé,Ce.0671611M@ac-strasbourg.fr,0388324416,,,STRASBOURG 2 + PRIVE,Centre,Centre,EUROMETROPOLE,,STRASBOURG CENTRE 2,GARCIA Frédérique,PIAL_0672383B,,402,357,48.58474907,7.752208491,"48,58254514","7,752358518",0.24531472
0671620X,"CLG PR ",COLLEGE PRIVE ECOLE LIBRE SAINTE ANNE,COLLEGE PRIVE ECOLE LIBRE SAINTE ANNE STRASBOURG,COLLEGE PRIVE ECOLE LIBRE SAINTE ANNE STRASBOURG,,"COLLEGE PRIVE ","ECOLE LIBRE SAINTE ANNE ",Hors EP,,128 route du Polygone,,67100,STRASBOURG,128.6,0,2nd degré,Privé,Ce.0671620X@ac-strasbourg.fr,0388319750,,,STRASBOURG 2 + PRIVE,Centre,Centre,EUROMETROPOLE,,STRASBOURG CENTRE 2,GARCIA Frédérique,PIAL_0671607H,,487,486,48.56343412,7.760820254,"48,58254514","7,752358518",2.214365578
0671639T,"LGT PR METIER ",LYCEE GENERAL ET TECHNOLOGIQUE PRIVE INSTITUTION SAINTE CLOTILDE,LYCEE GENERAL ET TECHNOLOGIQUE PRIVE INSTITUTION SAINTE CLOTILDE STRASBOURG,LYC GEN TECH PRIVE DES METIERS INSTITUTION SAINTE CLOTILDE STRASBOURG,,LYC GEN TECH PRIVE DES METIERS,"INSTITUTION SAINTE CLOTILDE ",Sans objet,,19 rue de Verdun,,67000,STRASBOURG,123.7,0,2nd degré,Privé,Ce.0671639T@ac-strasbourg.fr,0388455720,,,STRASBOURG 2 + PRIVE,Centre,Centre,EUROMETROPOLE,,STRASBOURG CENTRE 2,GARCIA Frédérique,PIAL_0671607H,,549,772,48.58725764,7.772056295,"48,58254514","7,752358518",1.540744501
0671844R,"E.E.PR ",ECOLE PRIMAIRE PRIVEE DU COLLEGE EPISCOPAL SAINT ETIENNE,ECOLE PRIMAIRE PRIVEE DU COLLEGE EPISCOPAL SAINT ETIENNE STRASBOURG,ECOLE PRIMAIRE PRIVEE COLLEGE EPISCOPAL ST ETIENNE STRASBOURG,,"ECOLE PRIMAIRE PRIVEE ","COLLEGE EPISCOPAL ST ETIENNE ",Hors EP,,9 rue des Couples,,67000,STRASBOURG,0,0,1er degré,Privé,ce.0671844R@ac-strasbourg.fr,0388155460,,,STRASBOURG 2 + PRIVE,Centre,Centre,EUROMETROPOLE,,STRASBOURG CENTRE 2,GARCIA Frédérique,PIAL_0672383B,,410,431,48.57917468,7.752586419,"48,58254514","7,752358518",0.375152563
0671850X,"E.E.PR ",ECOLE PRIMAIRE PRIVEE DOCTRINE CHRETIENNE,ECOLE PRIMAIRE PRIVEE DOCTRINE CHRETIENNE STRASBOURG,ECOLE PRIMAIRE PRIVEE DOCTRINE CHRETIENNE STRASBOURG,,"ECOLE PRIMAIRE PRIVEE ","DOCTRINE CHRETIENNE ",Hors EP,,3 route d'Oberhausbergen,,67200,STRASBOURG,0,0,1er degré,Privé," ce.0671850X@ac-strasbourg.fr",0388324416,,,STRASBOURG 2 + PRIVE,Centre,Centre,EUROMETROPOLE,,STRASBOURG CENTRE 2,GARCIA Frédérique,PIAL_0672383B,,376,322,48.59112596,7.723596578,"48,58254514","7,752358518",2.320760488
0671851Y,"E.E.PR ",ECOLE PRIMAIRE PRIVEE INSTITUTION SAINTE CLOTILDE,ECOLE PRIMAIRE PRIVEE INSTITUTION SAINTE CLOTILDE STRASBOURG,ECOLE PRIMAIRE PRIVEE SAINTE CLOTILDE STRASBOURG,,"ECOLE PRIMAIRE PRIVEE ","SAINTE CLOTILDE ",Hors EP,,19 rue de Verdun,,67000,STRASBOURG,0,0,1er degré,Privé," ce.0671851Y@ac-strasbourg.fr",0388455720,,,STRASBOURG 2 + PRIVE,Centre,Centre,EUROMETROPOLE,,STRASBOURG CENTRE 2,GARCIA Frédérique,PIAL_0671607H,,209,220,48.58725764,7.772056295,"48,58254514","7,752358518",1.540744501
0671852Z,"E.E.PR ",ECOLE PRIMAIRE PRIVEE INSTITUTION LA PROVIDENCE,ECOLE PRIMAIRE PRIVEE INSTITUTION LA PROVIDENCE STRASBOURG,ECOLE PRIMAIRE PRIVEE INSTITUTION LA PROVIDENCE STRASBOURG,,"ECOLE PRIMAIRE PRIVEE ","INSTITUTION LA PROVIDENCE ",Hors EP,,3 rue du Sanglier,,67000,STRASBOURG,0,0,1er degré,Privé,ce.0671608j@ac-strasbourg.fr,0388324456,,,STRASBOURG 2 + PRIVE,Centre,Centre,EUROMETROPOLE,,STRASBOURG CENTRE 2,GARCIA Frédérique,PIAL_0672383B,,366,365,48.58306,7.749690423,"48,58254514","7,752358518",0.204443555
0671853A,"E.E.PR ",ECOLE PRIMAIRE PRIVEE INSTITUTION NOTRE DAME,ECOLE PRIMAIRE PRIVEE INSTITUTION NOTRE DAME STRASBOURG,ECOLE PRIMAIRE PRIVEE INSTITUTION NOTRE DAME STRASBOURG,,"ECOLE PRIMAIRE PRIVEE ","INSTITUTION NOTRE DAME ",Hors EP,,6 rue des Bonnes Gens,,67000,STRASBOURG,0,0,1er degré,Privé," ce.0671853A@ac-strasbourg.fr",0388238787,,,STRASBOURG 2 + PRIVE,Centre,Centre,EUROMETROPOLE,,STRASBOURG CENTRE 2,GARCIA Frédérique,PIAL_0672383B,,432,435,48.58792111,7.74343233,"48,58254514","7,752358518",0.887937288
0671854B,"E.E.PR ",ECOLE PRIMAIRE PRIVEE INSTITUTION NOTRE DAME DE SION,ECOLE PRIMAIRE PRIVEE INSTITUTION NOTRE DAME DE SION STRASBOURG,ECOLE PRIMAIRE PRIVEE INSTITUTION NOTRE DAME DE SION STRASBOURG,,"ECOLE PRIMAIRE PRIVEE ",INSTITUTION NOTRE DAME DE SION,Hors EP,,2 rue Erckmann Chatrian,,67000,STRASBOURG,0,1,1er degré,Privé,ce.0671854B@ac-strasbourg.fr,0388354023,,,STRASBOURG 2 + PRIVE,Centre,Centre,EUROMETROPOLE,,STRASBOURG CENTRE 2,GARCIA Frédérique,PIAL_0671607H,,392,428,48.58867931,7.764382011,"48,58254514","7,752358518",1.116869424
0671856D,"E.E.PR ",ECOLE LIBRE SAINTE ANNE,ECOLE LIBRE SAINTE ANNE STRASBOURG,ECOLE PRIMAIRE PRIVEE ECOLE LIBRE SAINTE ANNE STRASBOURG,,"ECOLE PRIMAIRE PRIVEE ","ECOLE LIBRE SAINTE ANNE ",Hors EP,,128 route du Polygone,,67100,STRASBOURG,0,0,1er degré,Privé," ce.0671856D@ac-strasbourg.fr",0388319750,,,STRASBOURG 2 + PRIVE,Centre,Centre,EUROMETROPOLE,,STRASBOURG CENTRE 2,GARCIA Frédérique,PIAL_0671607H,,520,535,48.56343412,7.760820254,"48,58254514","7,752358518",2.214365578
0671958P,"CLG ",COLLEGE FOCH,COLLEGE FOCH STRASBOURG,COLLEGE FOCH STRASBOURG,COLLEGE FOCH,"COLLEGE ","FOCH ",Hors EP,,7 rue du général Frère,,67000,STRASBOURG,119.9,1,2nd degré,Public,ce.0671958P@ac-strasbourg.fr,0388363486,VINCENT LAPASIN,SANS INTERNAT NI DEMI PENSION,STRASBOURG 2 + PRIVE,Centre,Centre,EUROMETROPOLE,,STRASBOURG CENTRE 2,GARCIA Frédérique,PIAL_0671958P,,486,504,48.58822281,7.751831234,"48,58254514","7,752358518",0.632518348
0672301M,"CLG PR ",COLLEGE EPISCOPAL SAINT ETIENNE COLLEGE PRIVE,COLLEGE EPISCOPAL SAINT ETIENNE COLLEGE PRIVE STRASBOURG,COLLEGE PRIVE COLLEGE EPISCOPAL ST ETIENNE STRASBOURG,,"COLLEGE PRIVE ","COLLEGE EPISCOPAL ST ETIENNE ",Hors EP,,2 rue de la Pierre large,,67000,STRASBOURG,141.1,0,2nd degré,Privé,Ce.0672301M@ac-strasbourg.fr,0388767588,,,STRASBOURG 2 + PRIVE,Centre,Centre,EUROMETROPOLE,,STRASBOURG CENTRE 2,GARCIA Frédérique,PIAL_0672383B,,760,778,48.58242879,7.755785828,"48,58254514","7,752358518",0.252444757
0672303P,"CLG PR ",COLLEGE PRIVE INSTITUTION LA DOCTRINE CHRETIENNE,COLLEGE PRIVE INSTITUTION LA DOCTRINE CHRETIENNE STRASBOURG,COLLEGE PRIVE INSTIT.LA DOCTRINE CHRETIENNE STRASBOURG,,"COLLEGE PRIVE ","INSTIT.LA DOCTRINE CHRETIENNE ",Hors EP,,14 rue Brûlée,,67000,STRASBOURG,124.8,0,2nd degré,Privé,Ce.0672303P@ac-strasbourg.fr,0388324416,,,STRASBOURG 2 + PRIVE,Centre,Centre,EUROMETROPOLE,,STRASBOURG CENTRE 2,GARCIA Frédérique,PIAL_0672383B,,374,365,48.58474907,7.752208491,"48,58254514","7,752358518",0.24531472
0672305S,"LP PR METIER ",LYCEE PROFESSIONNEL PRIVE INSTITUTION SAINTE CLOTILDE LYCEE DES METIERS,LYCEE PROFESSIONNEL PRIVE INSTITUTION SAINTE CLOTILDE LYCEE DES METIERS STRASBOURG,LYCEE PROFESSIONNEL DES METIER INSTITUTION STE CLOTILDE STRASBOURG,,LYCEE PROFESSIONNEL DES METIER,"INSTITUTION STE CLOTILDE ",Sans objet,,19 rue de Verdun,,67000,STRASBOURG,103.8,0,2nd degré,Privé,Ce.0672305S@ac-strasbourg.fr,0388455720,,,STRASBOURG 2 + PRIVE,Centre,Centre,EUROMETROPOLE,,STRASBOURG CENTRE 2,GARCIA Frédérique,PIAL_0671607H,,333,290,48.58725764,7.772056295,"48,58254514","7,752358518",1.540744501
0672383B,"E.E.PR ",ECOLE PRIMAIRE PRIVEE JOIE DE VIVRE ANN SAINT ETIENNE,ECOLE PRIMAIRE PRIVEE JOIE DE VIVRE ANN SAINT ETIENNE STRASBOURG,ECOLE PRIMAIRE PRIVEE JOIE DE VIVRE STRASBOURG,,"ECOLE PRIMAIRE PRIVEE ","JOIE DE VIVRE ",Hors EP,,3 rue Monseigneur Hoch,,67200,STRASBOURG,0,1,1er degré,Privé," ecolejoiedevivre@wanadoo.fr",03883034844,,,STRASBOURG 2 + PRIVE,Centre,Centre,EUROMETROPOLE,,STRASBOURG SUD 3,MULLER Vanessa,PIAL_0672383B,,196,210,48.57618216,7.699617964,"48,58254514","7,752358518",3.943820981
0672899M,"CLG PR ",COLLEGE PRIVE INSTITUTION NOTRE DAME,COLLEGE PRIVE INSTITUTION NOTRE DAME STRASBOURG,COLLEGE PRIVE INSTITUTION NOTRE DAME STRASBOURG,,"COLLEGE PRIVE ","INSTITUTION NOTRE DAME ",Hors EP,,6 rue des bonnes Gens,,67000,STRASBOURG,129.4,0,2nd degré,Privé,ce.0672899M@ac-strasbourg.fr,0388238787,,,STRASBOURG 2 + PRIVE,Centre,Centre,EUROMETROPOLE,,STRASBOURG CENTRE 2,GARCIA Frédérique,PIAL_0672383B,,386,384,48.58792111,7.74343233,"48,58254514","7,752358518",0.887937288
0673083M,"LEG PR ",LYCEE PRIVE ECOLE LIBRE SAINTE ANNE,LYCEE PRIVE ECOLE LIBRE SAINTE ANNE STRASBOURG,LYCEE ECOLE LIBRE SAINTE-ANNE ECOLE LIBRE SAINTE-ANNE STRASBOURG,,"LYCEE ECOLE LIBRE SAINTE-ANNE ","ECOLE LIBRE SAINTE-ANNE ",Sans objet,,128 route du Polygone,,67100,STRASBOURG,128.2,0,2nd degré,Privé,ce.0673083M@ac-strasbourg.fr,0388319750,,,STRASBOURG 2 + PRIVE,Centre,Centre,EUROMETROPOLE,,STRASBOURG CENTRE 2,GARCIA Frédérique,PIAL_0671607H,,271,246,48.56343412,7.760820254,"48,58254514","7,752358518",2.214365578
0670197A,"E.M.PU ",ECOLE MATERNELLE LOUISE SCHEPPLER,ECOLE MATERNELLE LOUISE SCHEPPLER FEGERSHEIM,ECOLE MATERNELLE PUBLIQUE LOUISE SCHEPPLER FEGERSHEIM,,"ECOLE MATERNELLE PUBLIQUE ","LOUISE SCHEPPLER ",Hors EP,,24 rue des Vosges,,67640,FEGERSHEIM,0,0,1er degré,Public,ce.0670197A@ac-strasbourg.fr,0388649510,,,EUROMETROPOLE SUD - OUEST,Couronne de Strasbourg,Couronne De Strasbourg,EUROMETROPOLE,,SUD 5,HUMMEL Christelle,PIAL_0671396D,,97,102,48.49239279,7.698393117,"48,53160626","7,634516576",6.415019524
0670198B,"E.M.PU ",ECOLE MATERNELLE LES CIGOGNEAUX,ECOLE MATERNELLE LES CIGOGNEAUX DUPPIGHEIM,ECOLE MATERNELLE PUBLIQUE LES CIGOGNEAUX DUPPIGHEIM,,"ECOLE MATERNELLE PUBLIQUE ","LES CIGOGNEAUX ",Hors EP,,18b rue de la Gare,,67120,DUPPIGHEIM,0,0,1er degré,Public,ce.0670198B@ac-strasbourg.fr,0388507121,,,EUROMETROPOLE SUD - OUEST,Couronne de Strasbourg,Couronne De Strasbourg,EUROMETROPOLE,,EUROMETROPOLE 4,BAPPERT Virginie,PIAL_0672258R,,63,80,48.53291967,7.594171662,"48,53160626","7,634516576",2.974307934
0670201E,"E.M.PU ",ECOLE MATERNELLE LA CLE DES CHAMPS,ECOLE MATERNELLE LA CLE DES CHAMPS ESCHAU,ECOLE MATERNELLE PUBLIQUE LA CLE DES CHAMPS ESCHAU,,"ECOLE MATERNELLE PUBLIQUE ","LA CLE DES CHAMPS ",Hors EP,,1 rue Germain Muller,,67114,ESCHAU,0,0,1er degré,Public,ce.0670201E@ac-strasbourg.fr,0388685852,,,EUROMETROPOLE SUD - OUEST,Couronne de Strasbourg,Couronne De Strasbourg,EUROMETROPOLE,,SUD 5,HUMMEL Christelle,PIAL_0671396D,,111,124,48.48625168,7.716414195,"48,53160626","7,634516576",7.86338176
0670202F,"E.M.PU ",ECOLE MATERNELLE TOMI UNGERER,ECOLE MATERNELLE TOMI UNGERER FEGERSHEIM,ECOLE MATERNELLE PUBLIQUE TOMI UNGERER FEGERSHEIM,,"ECOLE MATERNELLE PUBLIQUE ","TOMI UNGERER ",Hors EP,,3 rue de l'Ecole,,67640,FEGERSHEIM,0,0,1er degré,Public,ce.0670202F@ac-strasbourg.fr,0388641613,,,EUROMETROPOLE SUD - OUEST,Couronne de Strasbourg,Couronne De Strasbourg,EUROMETROPOLE,,SUD 5,HUMMEL Christelle,PIAL_0671396D,,74,91,48.48936525,7.678242615,"48,53160626","7,634516576",5.695344178
0670203G,"E.M.PU ",ECOLE MATERNELLE LES COQUELICOTS,ECOLE MATERNELLE LES COQUELICOTS GEISPOLSHEIM,ECOLE MATERNELLE PUBLIQUE LES COQUELICOTS GEISPOLSHEIM,,"ECOLE MATERNELLE PUBLIQUE ","LES COQUELICOTS ",Hors EP,,10 rue de L'Ecole,,67118,GEISPOLSHEIM,0,0,1er degré,Public,ce.0670203G@ac-strasbourg.fr,0388688291,,,EUROMETROPOLE SUD - OUEST,Couronne de Strasbourg,Couronne De Strasbourg,EUROMETROPOLE,,EUROMETROPOLE 4,BAPPERT Virginie,PIAL_0671396D,,131,114,48.51347912,7.641711439,"48,53160626","7,634516576",2.08413084
0670204H,"E.M.PU ",ECOLE MATERNELLE LE PETIT PRINCE,ECOLE MATERNELLE LE PETIT PRINCE GEISPOLSHEIM,ECOLE MATERNELLE PUBLIQUE LE PETIT PRINCE GEISPOLSHEIM,,"ECOLE MATERNELLE PUBLIQUE ","LE PETIT PRINCE ",Hors EP,,1 rue Hector Berlioz,,67118,GEISPOLSHEIM,0,0,1er degré,Public,ce.0670204H@ac-strasbourg.fr,0388670197,,,EUROMETROPOLE SUD - OUEST,Couronne de Strasbourg,Couronne De Strasbourg,EUROMETROPOLE,,EUROMETROPOLE 4,BAPPERT Virginie,PIAL_0671396D,,124,118,48.52201721,7.678313407,"48,53160626","7,634516576",3.396923058
0670965K,"E.E.PU ",ECOLE PRIMAIRE LE PETIT PRINCE,ECOLE PRIMAIRE LE PETIT PRINCE ITTENHEIM,ECOLE PRIMAIRE PUBLIQUE LE PETIT PRINCE ITTENHEIM,COLLEGE PAUL WERNERT,"ECOLE PRIMAIRE PUBLIQUE ","LE PETIT PRINCE ",Hors EP,,Rue des Erables,,67117,ITTENHEIM,0,0,1er degré,Public,ce.0670965K@ac-strasbourg.fr,0388691041,,,EUROMETROPOLE SUD - OUEST,Couronne de Strasbourg,Couronne De Strasbourg,EUROMETROPOLE,LINGOLSHEIM Maxime Alexandre,EUROMETROPOLE 4,BAPPERT Virginie,PIAL_0672258R,,122,132,48.60762812,7.593070253,"48,53160626","7,634516576",8.986501982
0670969P,"E.E.PU ",ECOLE PRIMAIRE BELLE VUE,ECOLE PRIMAIRE BELLE VUE BREUSCHWICKERSHEIM,ECOLE PRIMAIRE PUBLIQUE BELLE VUE BREUSCHWICKERSHEIM,COLLEGE PAUL WERNERT,"ECOLE PRIMAIRE PUBLIQUE ","BELLE VUE ",Hors EP,,Rue Albert Schweitzer,,67112,BREUSCHWICKERSHEIM,0,0,1er degré,Public,ce.0670969P@ac-strasbourg.fr,0369815398,,,EUROMETROPOLE SUD - OUEST,Couronne de Strasbourg,Couronne De Strasbourg,EUROMETROPOLE,LINGOLSHEIM Maxime Alexandre,EUROMETROPOLE 4,BAPPERT Virginie,PIAL_0672258R,,66,93,48.58190034,7.598831389,"48,53160626","7,634516576",6.178440063
0671003B,"E.E.PU ",ECOLE PRIMAIRE NICOLE FONTAINE,ECOLE PRIMAIRE NICOLE FONTAINE ACHENHEIM,ECOLE PRIMAIRE PUBLIQUE NICOLE FONTAINE ACHENHEIM,COLLEGE PAUL WERNERT,"ECOLE PRIMAIRE PUBLIQUE ","NICOLE FONTAINE ",Hors EP,,4 rue de l'Ecole,,67204,ACHENHEIM,0,0,1er degré,Public,ce.0671003B@ac-strasbourg.fr,0388961187,,,EUROMETROPOLE SUD - OUEST,Couronne de Strasbourg,Couronne De Strasbourg,EUROMETROPOLE,LINGOLSHEIM Maxime Alexandre,EUROMETROPOLE 4,BAPPERT Virginie,PIAL_0672258R,,139,142,48.58069724,7.624014763,"48,53160626","7,634516576",5.51311627
0671016R,"E.P.PU ",ECOLE PRIMAIRE LES CIGOGNES,ECOLE PRIMAIRE LES CIGOGNES OBERSCHAEFFOLSHEIM,ECOLE PRIMAIRE PUBLIQUE LES CIGOGNES OBERSCHAEFFOLSHEIM,COLLEGE PAUL WERNERT,"ECOLE PRIMAIRE PUBLIQUE ","LES CIGOGNES ",Hors EP,,19 rue de la Mairie,,67203,OBERSCHAEFFOLSHEIM,0,0,1er degré,Public,ce.0671016R@ac-strasbourg.fr,0388771381,,,EUROMETROPOLE SUD - OUEST,Couronne de Strasbourg,Couronne De Strasbourg,EUROMETROPOLE,LINGOLSHEIM Maxime Alexandre,EUROMETROPOLE 4,BAPPERT Virginie,PIAL_0672258R,,178,104,48.58430811,7.649627872,"48,53160626","7,634516576",5.964773614
0671021W,"E.P.PU ",ECOLE PRIMAIRE,ECOLE PRIMAIRE OSTHOFFEN,ECOLE PRIMAIRE PUBLIQUE OSTHOFFEN,COLLEGE PAUL WERNERT,"ECOLE PRIMAIRE PUBLIQUE ",,Hors EP,,6 rue Principale,,67990,OSTHOFFEN,0,0,1er degré,Public,ce.0671021W@ac-strasbourg.fr,0388965313,,,EUROMETROPOLE SUD - OUEST,Couronne de Strasbourg,Couronne De Strasbourg,EUROMETROPOLE,LINGOLSHEIM Maxime Alexandre,EUROMETROPOLE 4,BAPPERT Virginie,PIAL_0672258R,,69,62,48.58502488,7.556132949,"48,53160626","7,634516576",8.280070334
0671195K,"E.P.PU ",ECOLE PRIMAIRE,ECOLE PRIMAIRE ALTORF,ECOLE PRIMAIRE PUBLIQUE ALTORF,COLLEGE NICOLAS COPERNIC,"ECOLE PRIMAIRE PUBLIQUE ",,Hors EP,,3 rue de Dachstein,,67120,ALTORF,0,0,1er degré,Public,ce.0671195K@ac-strasbourg.fr,0388382644,,,EUROMETROPOLE SUD - OUEST,Couronne de Strasbourg,Couronne De Strasbourg,EUROMETROPOLE,MOLSHEIM Rembrandt Bugatti,EUROMETROPOLE 4,BAPPERT Virginie,PIAL_0672258R,,123,117,48.52832785,7.526403531,"48,53160626","7,634516576",7.969398838
0671396D,"E.E.PU ",ECOLE PRIMAIRE DE LA GARE,ECOLE PRIMAIRE DE LA GARE GEISPOLSHEIM,ECOLE PRIMAIRE PUBLIQUE ECOLE DE LA GARE GEISPOLSHEIM,COLLEGE JEAN DE LA FONTAINE,"ECOLE PRIMAIRE PUBLIQUE ","ECOLE DE LA GARE ",Hors EP,,7 rue Pasteur,,67118,GEISPOLSHEIM,0,1,1er degré,Public,ce.0671396D@ac-strasbourg.fr,0388660433,,,EUROMETROPOLE SUD - OUEST,Couronne de Strasbourg,Couronne De Strasbourg,EUROMETROPOLE,ILLKIRCH Nelson Mandela,EUROMETROPOLE 4,BAPPERT Virginie,PIAL_0671396D,,233,231,48.52252376,7.681991576,"48,53160626","7,634516576",3.639037542
0671401J,"E.E.PU ",ECOLE ELEMENTAIRE LES COLVERTS,ECOLE ELEMENTAIRE LES COLVERTS DUPPIGHEIM,ECOLE ELEMENTAIRE PUBLIQUE LES COLVERTS DUPPIGHEIM,COLLEGE NICOLAS COPERNIC,"ECOLE ELEMENTAIRE PUBLIQUE ","LES COLVERTS ",Hors EP,,18c rue de la Gare,,67120,DUPPIGHEIM,0,0,1er degré,Public,ce.0671401J@ac-strasbourg.fr,0367290501,,,EUROMETROPOLE SUD - OUEST,Couronne de Strasbourg,Couronne De Strasbourg,EUROMETROPOLE,MOLSHEIM Rembrandt Bugatti,EUROMETROPOLE 4,BAPPERT Virginie,PIAL_0672258R,,128,139,48.53291967,7.594171662,"48,53160626","7,634516576",2.974307934
0671404M,"E.E.PU ",ECOLE PRIMAIRE,ECOLE PRIMAIRE ENTZHEIM,ECOLE PRIMAIRE PUBLIQUE ENTZHEIM,COLLEGE JEAN DE LA FONTAINE,"ECOLE PRIMAIRE PUBLIQUE ",,Hors EP,,Rue de la Blieth,,67960,ENTZHEIM,0,0,1er degré,Public,ce.0671404M@ac-strasbourg.fr,0388688862,,,EUROMETROPOLE SUD - OUEST,Couronne de Strasbourg,Couronne De Strasbourg,EUROMETROPOLE,ILLKIRCH Nelson Mandela,EUROMETROPOLE 4,BAPPERT Virginie,PIAL_0671396D,,169,171,48.53270472,7.636476325,"48,53160626","7,634516576",0.189056108
0671408S,"E.E.PU ",ECOLE PRIMAIRE MARIE HART,ECOLE PRIMAIRE MARIE HART FEGERSHEIM,ECOLE PRIMAIRE PUBLIQUE MARIE HART FEGERSHEIM,COLLEGE SEBASTIEN BRANT,"ECOLE PRIMAIRE PUBLIQUE ","MARIE HART ",Hors EP,,48 route de Lyon,,67640,FEGERSHEIM,0,0,1er degré,Public,ce.0671408S@ac-strasbourg.fr,0388643486,,,EUROMETROPOLE SUD - OUEST,Couronne de Strasbourg,Couronne De Strasbourg,EUROMETROPOLE,ERSTEIN Romain Rolland,SUD 5,HUMMEL Christelle,PIAL_0671396D,,144,126,48.48942225,7.679219758,"48,53160626","7,634516576",5.731171988
0671409T,"E.E.PU ",GERMAIN MULLER,GERMAIN MULLER FEGERSHEIM,ECOLE ELEMENTAIRE PUBLIQUE GERMAIN MULLER FEGERSHEIM,COLLEGE SEBASTIEN BRANT,"ECOLE ELEMENTAIRE PUBLIQUE ","GERMAIN MULLER ",Hors EP,,1 rue de la Liberté,,67640,FEGERSHEIM,0,0,1er degré,Public,ce.0671409T@ac-strasbourg.fr,0388641442,,,EUROMETROPOLE SUD - OUEST,Couronne de Strasbourg,Couronne De Strasbourg,EUROMETROPOLE,ERSTEIN Romain Rolland,SUD 5,HUMMEL Christelle,PIAL_0671396D,,174,186,48.48848593,7.70108253,"48,53160626","7,634516576",6.858213369
0671422G,"E.E.PU ",ECOLE ELEMENTAIRE,ECOLE ELEMENTAIRE LIPSHEIM,ECOLE ELEMENTAIRE PUBLIQUE LIPSHEIM,COLLEGE JEAN DE LA FONTAINE,"ECOLE ELEMENTAIRE PUBLIQUE ",,Hors EP,,2 place Leclerc,,67640,LIPSHEIM,0,0,1er degré,Public,ce.0671422G@ac-strasbourg.fr,0388648712,,,EUROMETROPOLE SUD - OUEST,Couronne de Strasbourg,Couronne De Strasbourg,EUROMETROPOLE,ILLKIRCH Nelson Mandela,EUROMETROPOLE 4,BAPPERT Virginie,PIAL_0671396D,,122,132,48.48996976,7.664100651,"48,53160626","7,634516576",5.117035005
0671686U,"CLG ",COLLEGE PAUL WERNERT,COLLEGE PAUL WERNERT ACHENHEIM,COLLEGE PAUL WERNERT ACHENHEIM,,"COLLEGE ","PAUL WERNERT ",Hors EP,,4 rue du Collège,,67204,ACHENHEIM,118.6,1,2nd degré,Public,ce.0671686U@ac-strasbourg.fr,0388960242,VERONIQUE GROB,SANS INTERNAT AVEC DEMI PENSION,EUROMETROPOLE SUD - OUEST,Couronne de Strasbourg,Couronne De Strasbourg,EUROMETROPOLE,,EUROMETROPOLE 4,BAPPERT Virginie,PIAL_0672258R,,534,538,48.58244936,7.623262384,"48,53160626","7,634516576",5.713846762
0671687V,"CLG ",COLLEGE SEBASTIEN BRANT,COLLEGE SEBASTIEN BRANT ESCHAU,COLLEGE SEBASTIEN BRANT ESCHAU,,"COLLEGE ","SEBASTIEN BRANT ",Hors EP,,5 rue du Collège,,67114,ESCHAU,113.7,1,2nd degré,Public,ce.0671687V@ac-strasbourg.fr,0388642633,SYLVIE SCHOULER,SANS INTERNAT AVEC DEMI PENSION,EUROMETROPOLE SUD - OUEST,Couronne de Strasbourg,Couronne De Strasbourg,EUROMETROPOLE,,SUD 5,HUMMEL Christelle,PIAL_0671396D,,723,735,48.48707338,7.713698073,"48,53160626","7,634516576",7.651450454
0671714Z,"E.M.PU ",ECOLE MATERNELLE,ECOLE MATERNELLE BREUSCHWICKERSHEIM,ECOLE MATERNELLE PUBLIQUE BREUSCHWICKERSHEIM,,"ECOLE MATERNELLE PUBLIQUE ",,Hors EP,,8 rue des Vignes,,67112,BREUSCHWICKERSHEIM,0,0,1er degré,Public,ce.0671714Z@ac-strasbourg.fr,0369780191,,,EUROMETROPOLE SUD - OUEST,Couronne de Strasbourg,Couronne De Strasbourg,EUROMETROPOLE,,EUROMETROPOLE 4,BAPPERT Virginie,PIAL_0672258R,,39,40,48.57988709,7.598582503,"48,53160626","7,634516576",5.984661656
0671766F,"E.M.PU ",ECOLE MATERNELLE,ECOLE MATERNELLE ACHENHEIM,ECOLE MATERNELLE PUBLIQUE ACHENHEIM,,"ECOLE MATERNELLE PUBLIQUE ",,Hors EP,,6 rue Descartes,,67204,ACHENHEIM,0,0,1er degré,Public,ce.0671766F@ac-strasbourg.fr,0388961197,,,EUROMETROPOLE SUD - OUEST,Couronne de Strasbourg,Couronne De Strasbourg,EUROMETROPOLE,,EUROMETROPOLE 4,BAPPERT Virginie,PIAL_0672258R,,77,89,48.58238408,7.624963722,"48,53160626","7,634516576",5.689840003
0671768H,"E.M.PU ",ECOLE MATERNELLE LES HIRONDELLES,ECOLE MATERNELLE LES HIRONDELLES ESCHAU,ECOLE MATERNELLE PUBLIQUE LES HIRONDELLES ESCHAU,,"ECOLE MATERNELLE PUBLIQUE ","LES HIRONDELLES ",Hors EP,,5 rue des Platanes,,67114,ESCHAU,0,0,1er degré,Public,ce.0671768H@ac-strasbourg.fr,0388642705,,,EUROMETROPOLE SUD - OUEST,Couronne de Strasbourg,Couronne De Strasbourg,EUROMETROPOLE,,SUD 5,HUMMEL Christelle,PIAL_0671396D,,59,81,48.48779212,7.726779053,"48,53160626","7,634516576",8.362369594
0671824U,"CLG ",COLLEGE JEAN DE LA FONTAINE,COLLEGE JEAN DE LA FONTAINE GEISPOLSHEIM,COLLEGE JEAN DE LA FONTAINE GEISPOLSHEIM,,"COLLEGE ","JEAN DE LA FONTAINE ",Hors EP,,1 rue du Collège,,67118,GEISPOLSHEIM,111.2,1,2nd degré,Public,ce.0671824U@ac-strasbourg.fr,0388599159,DOMINIQUE BECK,SANS INTERNAT AVEC DEMI PENSION,EUROMETROPOLE SUD - OUEST,Couronne de Strasbourg,Couronne De Strasbourg,EUROMETROPOLE,,EUROMETROPOLE 4,BAPPERT Virginie,PIAL_0671396D,,658,615,48.51817096,7.651920567,"48,53160626","7,634516576",1.968398888
0672001L,"E.M.PU ",ECOLE MATERNELLE JULES HOFFMANN,ECOLE MATERNELLE JULES HOFFMANN LIPSHEIM,ECOLE MATERNELLE PUBLIQUE JULES HOFFMANN LIPSHEIM,,"ECOLE MATERNELLE PUBLIQUE ","JULES HOFFMANN ",Hors EP,,2 place Leclerc,,67640,LIPSHEIM,0,0,1er degré,Public,ce.0672001L@ac-strasbourg.fr,0388648710,,,EUROMETROPOLE SUD - OUEST,Couronne de Strasbourg,Couronne De Strasbourg,EUROMETROPOLE,,EUROMETROPOLE 4,BAPPERT Virginie,PIAL_0671396D,,65,66,48.48996976,7.664100651,"48,53160626","7,634516576",5.117035005
0672004P,"E.P.PU ",ECOLE PRIMAIRE AU FIL DE L EAU,ECOLE PRIMAIRE AU FIL DE L EAU PLOBSHEIM,ECOLE PRIMAIRE PUBLIQUE AU FIL DE L'EAU PLOBSHEIM,COLLEGE SEBASTIEN BRANT,"ECOLE PRIMAIRE PUBLIQUE ","AU FIL DE L'EAU ",Hors EP,,4 rue de l'école,,67115,PLOBSHEIM,0,0,1er degré,Public,ce.0672004P@ac-strasbourg.fr,0388680190,,,EUROMETROPOLE SUD - OUEST,Couronne de Strasbourg,Couronne De Strasbourg,EUROMETROPOLE,ERSTEIN Romain Rolland,SUD 5,HUMMEL Christelle,PIAL_0671396D,,295,278,48.47155413,7.728356841,"48,53160626","7,634516576",9.612042134
0672038B,"E.E.PU ",ECOLE ELEMENTAIRE DU GLOECKELSBERG,ECOLE ELEMENTAIRE DU GLOECKELSBERG BLAESHEIM,ECOLE ELEMENTAIRE PUBLIQUE DU GLOECKELSBERG BLAESHEIM,COLLEGE JEAN DE LA FONTAINE,"ECOLE ELEMENTAIRE PUBLIQUE ","DU GLOECKELSBERG ",Hors EP,,61 rue du Maréchal Foch,,67113,BLAESHEIM,0,0,1er degré,Public,ce.0672038B@ac-strasbourg.fr,0388689102,,,EUROMETROPOLE SUD - OUEST,Couronne de Strasbourg,Couronne De Strasbourg,EUROMETROPOLE,ILLKIRCH Nelson Mandela,EUROMETROPOLE 4,BAPPERT Virginie,PIAL_0671396D,,80,61,48.50568837,7.608536204,"48,53160626","7,634516576",3.459357728
0672206J,"E.M.PU ",ECOLE MATERNELLE,ECOLE MATERNELLE ERNOLSHEIM BRUCHE,ECOLE MATERNELLE PUBLIQUE ERNOLSHEIM BRUCHE,,"ECOLE MATERNELLE PUBLIQUE ",,Hors EP,,9 allée du Stade,,67120,ERNOLSHEIM BRUCHE,0,0,1er degré,Public,ce.0672206J@ac-strasbourg.fr,0388598704,,,EUROMETROPOLE SUD - OUEST,Couronne de Strasbourg,Couronne De Strasbourg,EUROMETROPOLE,,EUROMETROPOLE 4,BAPPERT Virginie,PIAL_0672258R,,67,48,48.56070184,7.567737413,"48,53160626","7,634516576",5.88491243
0672247D,"E.M.PU ",ECOLE MATERNELLE LE MOULIN,ECOLE MATERNELLE LE MOULIN PLOBSHEIM,ECOLE MATERNELLE PUBLIQUE LE MOULIN PLOBSHEIM,,"ECOLE MATERNELLE PUBLIQUE ","LE MOULIN ",Hors EP,,2 rue des Faisans,,67115,PLOBSHEIM,0,0,1er degré,Public,ce.0672247D@ac-strasbourg.fr,0388985671,,,EUROMETROPOLE SUD - OUEST,Couronne de Strasbourg,Couronne De Strasbourg,EUROMETROPOLE,,SUD 5,HUMMEL Christelle,PIAL_0671396D,,82,82,48.46634747,7.735636416,"48,53160626","7,634516576",10.4003988
0672258R,"E.P.PU ",ECOLE PRIMAIRE JEAN HANS ARP,ECOLE PRIMAIRE JEAN HANS ARP DUTTLENHEIM,ECOLE PRIMAIRE PUBLIQUE JEAN HANS ARP DUTTLENHEIM,COLLEGE NICOLAS COPERNIC,"ECOLE PRIMAIRE PUBLIQUE ","JEAN HANS ARP ",Hors EP,,1 place des frères Mathis,,67120,DUTTLENHEIM,0,0,1er degré,Public,ce.0672258R@ac-strasbourg.fr,0388507246,,,EUROMETROPOLE SUD - OUEST,Couronne de Strasbourg,Couronne De Strasbourg,EUROMETROPOLE,MOLSHEIM Rembrandt Bugatti,EUROMETROPOLE 4,BAPPERT Virginie,PIAL_0672258R,,261,178,48.530932,7.560949489,"48,53160626","7,634516576",5.417596188
0672351S,"E.E.PU ",ECOLE PRIMAIRE,ECOLE PRIMAIRE ERNOLSHEIM BRUCHE,ECOLE PRIMAIRE PUBLIQUE ERNOLSHEIM BRUCHE,COLLEGE NICOLAS COPERNIC,"ECOLE PRIMAIRE PUBLIQUE ",,Hors EP,,5 allée du Stade,,67120,ERNOLSHEIM BRUCHE,0,0,1er degré,Public,ce.0672351S@ac-strasbourg.fr,0388598702,,,EUROMETROPOLE SUD - OUEST,Couronne de Strasbourg,Couronne De Strasbourg,EUROMETROPOLE,MOLSHEIM Rembrandt Bugatti,EUROMETROPOLE 4,BAPPERT Virginie,PIAL_0672258R,,108,106,48.56086461,7.567159759,"48,53160626","7,634516576",5.93038187
0672392L,"E.M.PU ",ECOLE MATERNELLE,ECOLE MATERNELLE ENTZHEIM,ECOLE MATERNELLE PUBLIQUE ENTZHEIM,,"ECOLE MATERNELLE PUBLIQUE ",,Hors EP,,Rue du Tramway,,67960,ENTZHEIM,0,0,1er degré,Public,ce.0672392L@ac-strasbourg.fr,0388689709,,,EUROMETROPOLE SUD - OUEST,Couronne de Strasbourg,Couronne De Strasbourg,EUROMETROPOLE,,EUROMETROPOLE 4,BAPPERT Virginie,PIAL_0671396D,,110,109,48.53425975,7.638791707,"48,53160626","7,634516576",0.431448667
0672451A,"E.M.PU ",ECOLE MATERNELLE LE PETIT PRINCE,ECOLE MATERNELLE LE PETIT PRINCE ITTENHEIM,ECOLE MATERNELLE PUBLIQUE LE PETIT PRINCE ITTENHEIM,,"ECOLE MATERNELLE PUBLIQUE ","LE PETIT PRINCE ",Hors EP,,Rue des Erables,,67117,ITTENHEIM,0,0,1er degré,Public,ce.0672451A@ac-strasbourg.fr,0388690765,,,EUROMETROPOLE SUD - OUEST,Couronne de Strasbourg,Couronne De Strasbourg,EUROMETROPOLE,,EUROMETROPOLE 4,BAPPERT Virginie,PIAL_0672258R,,78,65,48.60762812,7.593070253,"48,53160626","7,634516576",8.986501982
0672454D,"E.E.PU ",ECOLE PRIMAIRE L ILE AUX FRENES,ECOLE PRIMAIRE L ILE AUX FRENES ESCHAU,ECOLE PRIMAIRE PUBLIQUE L'ILE AUX FRENES ESCHAU,COLLEGE SEBASTIEN BRANT,"ECOLE PRIMAIRE PUBLIQUE ","L'ILE AUX FRENES ",Hors EP,,60 rue 1ère Division Blindée,,67114,ESCHAU,0,0,1er degré,Public,ce.0672454D@ac-strasbourg.fr,0388642240,,,EUROMETROPOLE SUD - OUEST,Couronne de Strasbourg,Couronne De Strasbourg,EUROMETROPOLE,ERSTEIN Romain Rolland,SUD 5,HUMMEL Christelle,PIAL_0671396D,,332,353,48.48542575,7.714588379,"48,53160626","7,634516576",7.820693829
0672470W,"E.E.PU ",ECOLE PRIMAIRE SAINT EXUPERY,ECOLE PRIMAIRE SAINT EXUPERY GEISPOLSHEIM,ECOLE PRIMAIRE PUBLIQUE SAINT EXUPERY GEISPOLSHEIM,COLLEGE JEAN DE LA FONTAINE,"ECOLE PRIMAIRE PUBLIQUE ","SAINT EXUPERY ",Hors EP,,3 rue du Collège,,67118,GEISPOLSHEIM,0,0,1er degré,Public,ce.0672470W@ac-strasbourg.fr,0388686887,,,EUROMETROPOLE SUD - OUEST,Couronne de Strasbourg,Couronne De Strasbourg,EUROMETROPOLE,ILLKIRCH Nelson Mandela,EUROMETROPOLE 4,BAPPERT Virginie,PIAL_0671396D,,207,217,48.51979721,7.6515834,"48,53160626","7,634516576",1.8176659
0672489S,"E.E.PU ",ECOLE PRIMAIRE,ECOLE PRIMAIRE HANGENBIETEN,ECOLE PRIMAIRE PUBLIQUE HANGENBIETEN,COLLEGE PAUL WERNERT,"ECOLE PRIMAIRE PUBLIQUE ",,Hors EP,,10 impasse des Ormes,,67980,HANGENBIETEN,0,0,1er degré,Public,ce.0672489S@ac-strasbourg.fr,0369579696,,,EUROMETROPOLE SUD - OUEST,Couronne de Strasbourg,Couronne De Strasbourg,EUROMETROPOLE,LINGOLSHEIM Maxime Alexandre,EUROMETROPOLE 4,BAPPERT Virginie,PIAL_0672258R,,112,111,48.56056044,7.615770409,"48,53160626","7,634516576",3.502833726
0672545C,"E.M.PU ",ECOLE MATERNELLE,ECOLE MATERNELLE HANGENBIETEN,ECOLE MATERNELLE PUBLIQUE HANGENBIETEN,,"ECOLE MATERNELLE PUBLIQUE ",,Hors EP,,19 rue des Noyers,,67980,HANGENBIETEN,0,0,1er degré,Public,ce.0672545C@ac-strasbourg.fr,0369810089,,,EUROMETROPOLE SUD - OUEST,Couronne de Strasbourg,Couronne De Strasbourg,EUROMETROPOLE,,EUROMETROPOLE 4,BAPPERT Virginie,PIAL_0672258R,,71,63,48.55980532,7.614981654,"48,53160626","7,634516576",3.449621372
0672580R,"E.M.PU ",ECOLE MATERNELLE PUBLIQUE,ECOLE MATERNELLE PUBLIQUE BLAESHEIM,ECOLE MATERNELLE PUBLIQUE BLAESHEIM,,"ECOLE MATERNELLE PUBLIQUE ",,Hors EP,,2 rue du Lavoir,,67113,BLAESHEIM,0,0,1er degré,Public,ce.0672580R@ac-strasbourg.fr,0388689232,,,EUROMETROPOLE SUD - OUEST,Couronne de Strasbourg,Couronne De Strasbourg,EUROMETROPOLE,,EUROMETROPOLE 4,BAPPERT Virginie,PIAL_0671396D,,50,50,48.50346227,7.608034011,"48,53160626","7,634516576",3.687581205
0672661D,"E.P.PU ",ECOLE PRIMAIRE,ECOLE PRIMAIRE KOLBSHEIM,ECOLE PRIMAIRE PUBLIQUE KOLBSHEIM,COLLEGE PAUL WERNERT,"ECOLE PRIMAIRE PUBLIQUE ",,Hors EP,,28 rue Jacques Maritain,,67120,KOLBSHEIM,0,0,1er degré,Public,ce.0672661D@ac-strasbourg.fr,0390294242,,,EUROMETROPOLE SUD - OUEST,Couronne de Strasbourg,Couronne De Strasbourg,EUROMETROPOLE,LINGOLSHEIM Maxime Alexandre,EUROMETROPOLE 4,BAPPERT Virginie,PIAL_0672258R,,105,93,48.56140069,7.590894729,"48,53160626","7,634516576",4.613795291
0672849H,"E.P.PU ",ECOLE PRIMAIRE FRANCOIS J ESPERE,ECOLE PRIMAIRE FRANCOIS J ESPERE DACHSTEIN,ECOLE PRIMAIRE PUBLIQUE FRANCOIS J'ESPERE DACHSTEIN,COLLEGE NICOLAS COPERNIC,"ECOLE PRIMAIRE PUBLIQUE ","FRANCOIS J'ESPERE ",Hors EP,,Rue Jacques Prévert,,67120,DACHSTEIN,0,0,1er degré,Public,ce.0672849H@ac-strasbourg.fr,0388385000,,,EUROMETROPOLE SUD - OUEST,Couronne de Strasbourg,Couronne De Strasbourg,EUROMETROPOLE,MOLSHEIM Rembrandt Bugatti,EUROMETROPOLE 4,BAPPERT Virginie,PIAL_0672258R,,166,163,48.54846087,7.53410409,"48,53160626","7,634516576",7.626411563
0672896J,"CLG ",COLLEGE NICOLAS COPERNIC,COLLEGE NICOLAS COPERNIC DUTTLENHEIM,COLLEGE NICOLAS COPERNIC DUTTLENHEIM,,"COLLEGE ","NICOLAS COPERNIC ",Hors EP,,Rue du Stade,,67120,DUTTLENHEIM,117.1,1,2nd degré,Public,ce.0672896J@ac-strasbourg.fr,0388482330,FRANCOISE SENERS,SANS INTERNAT AVEC DEMI PENSION,EUROMETROPOLE SUD - OUEST,Couronne de Strasbourg,Couronne De Strasbourg,EUROMETROPOLE,,EUROMETROPOLE 4,BAPPERT Virginie,PIAL_0672258R,,466,459,48.53090263,7.569308194,"48,53160626","7,634516576",4.802226967
0670049P,"LG ",LYCEE GENERAL FREPPEL,LYCEE GENERAL FREPPEL OBERNAI,LYCEE GENERAL FREPPEL OBERNAI,,"LYCEE GENERAL ","FREPPEL ",Sans objet,,25 rue du général Gouraud,,67212,OBERNAI,132.7,0,2nd degré,Public,ce.0670049P@ac-strasbourg.fr,0388476300,CHARLY Christophe,SANS INTERNAT AVEC DEMI PENSION,OBERNAI,Deux portes,Deux Portes,SUD,,SUD 2,RIEGERT Isabelle,PIAL_0671434V,,623,661,48.46181925,7.486761185,"48,47351189","7,483504161",1.322151426
0670050R,"LP LYC METIER ",LYCEE PROFESSIONNEL PAUL EMILE VICTOR LYCEE DES METIERS,LYCEE PROFESSIONNEL PAUL EMILE VICTOR LYCEE DES METIERS OBERNAI,LP LYCEE DES METIERS PAUL-EMILE VICTOR OBERNAI,,"LP LYCEE DES METIERS ","PAUL-EMILE VICTOR ",Sans objet,,1 A avenue de Gail,,67210,OBERNAI,94.4,0,2nd degré,Public,ce.0670050R@ac-strasbourg.fr,0388476470,TRAN THANH Son,AVEC INTERNAT ET DEMI PENSION,OBERNAI,Deux portes,Deux Portes,SUD,,SUD 2,RIEGERT Isabelle,PIAL_0671434V,,20,213,48.46155201,7.489798866,"48,47351189","7,483504161",1.408529744
0670211R,"E.M.PU ",ECOLE MATERNELLE,ECOLE MATERNELLE OTTROTT,ECOLE MATERNELLE PUBLIQUE OTTROTT,COLLEGE FREPPEL,"ECOLE MATERNELLE PUBLIQUE ",,Hors EP,,5 avenue des Myrtilles,,67530,OTTROTT,0,0,1er degré,Public,ce.0670211R@ac-strasbourg.fr,0388959524,,,OBERNAI,Deux portes,Deux Portes,SUD,,SUD 2,RIEGERT Isabelle,PIAL_0671434V,,51,51,48.45553532,7.42981138,"48,47351189","7,483504161",4.434875435
0670217X,"E.M.PU ",ECOLE MATERNELLE,ECOLE MATERNELLE NIEDERNAI,ECOLE MATERNELLE PUBLIQUE NIEDERNAI,COLLEGE EUROPE,"ECOLE MATERNELLE PUBLIQUE ",,Hors EP,,9 rue du Château,,67210,NIEDERNAI,0,0,1er degré,Public,ce.0670217X@ac-strasbourg.fr,0388954147,,,OBERNAI,Deux portes,Deux Portes,SUD,,EUROMETROPOLE 4,BAPPERT Virginie,PIAL_0671434V,,49,38,48.45155794,7.516142223,"48,47351189","7,483504161",3.42794136
0670231M,"E.M.PU ",ECOLE MATERNELLE LE CASTEL,ECOLE MATERNELLE LE CASTEL BISCHOFFSHEIM,ECOLE MATERNELLE PUBLIQUE LE CASTEL BISCHOFFSHEIM,COLLEGE HERRADE DE LANDSBERG,"ECOLE MATERNELLE PUBLIQUE ","LE CASTEL ",Hors EP,,5 A rue du Castel,,67870,BISCHOFFSHEIM,0,0,1er degré,Public,ce.0670231M@ac-strasbourg.fr,0388507590,,,OBERNAI,Deux portes,Deux Portes,SUD,,SUD 6,ALLAIS Florence,PIAL_0672868D,,105,99,48.48672469,7.494117653,"48,47351189","7,483504161",1.664495037
0670232N,"E.M.PU ",ECOLE MATERNELLE,ECOLE MATERNELLE BOERSCH,ECOLE MATERNELLE PUBLIQUE BOERSCH,COLLEGE HERRADE DE LANDSBERG,"ECOLE MATERNELLE PUBLIQUE ",,Hors EP,,4 rue du Moulin,,67530,BOERSCH,0,0,1er degré,Public,ce.0670232N@ac-strasbourg.fr,0388958228,,,OBERNAI,Deux portes,Deux Portes,SUD,,SUD 6,ALLAIS Florence,PIAL_0672868D,,64,60,48.47636485,7.443414736,"48,47351189","7,483504161",2.972226515
0670246D,"E.M.PU ",ECOLE MATERNELLE,ECOLE MATERNELLE MEISTRATZHEIM,ECOLE MATERNELLE PUBLIQUE MEISTRATZHEIM,COLLEGE EUROPE,"ECOLE MATERNELLE PUBLIQUE ",,Hors EP,,417 rue Sainte-Odile,,67210,MEISTRATZHEIM,0,0,1er degré,Public,ce.0670246D@ac-strasbourg.fr,0388954658,,,OBERNAI,Deux portes,Deux Portes,SUD,,EUROMETROPOLE 4,BAPPERT Virginie,PIAL_0671434V,,36,44,48.44970797,7.540774039,"48,47351189","7,483504161",4.983805541
0671236E,"E.E.PU ",ECOLE PRIMAIRE DES FONTAINES,ECOLE PRIMAIRE DES FONTAINES BISCHOFFSHEIM,ECOLE PRIMAIRE PUBLIQUE DES FONTAINES BISCHOFFSHEIM,COLLEGE HERRADE DE LANDSBERG,"ECOLE PRIMAIRE PUBLIQUE ","DES FONTAINES ",Hors EP,,2 rue des Ecoles,,67870,BISCHOFFSHEIM,0,0,1er degré,Public,ce.0671236E@ac-strasbourg.fr,0388502124,,,OBERNAI,Deux portes,Deux Portes,SUD,OBERNAI Europe,SUD 6,ALLAIS Florence,PIAL_0672868D,,140,152,48.48683907,7.488786883,"48,47351189","7,483504161",1.532217409
0671238G,"E.E.PU ",ECOLE CHARLES SPINDLER,ECOLE CHARLES SPINDLER BOERSCH,ECOLE ELEMENTAIRE PUBLIQUE CHARLES SPINDLER BOERSCH,COLLEGE HERRADE DE LANDSBERG,"ECOLE ELEMENTAIRE PUBLIQUE ","CHARLES SPINDLER ",Hors EP,,21 rue Mgr Médard Barth,,67530,BOERSCH,0,0,1er degré,Public,ce.0671238G@ac-strasbourg.fr,0388481337,,,OBERNAI,Deux portes,Deux Portes,SUD,OBERNAI Europe,SUD 6,ALLAIS Florence,PIAL_0672868D,,111,140,48.47748539,7.440319567,"48,47351189","7,483504161",3.213893495
0671241K,"E.P.PU ",ECOLE PRIMAIRE,ECOLE PRIMAIRE GRENDELBRUCH,ECOLE PRIMAIRE PUBLIQUE GRENDELBRUCH,COLLEGE HERRADE DE LANDSBERG,"ECOLE PRIMAIRE PUBLIQUE ",,Hors EP,,1 rue de la Libération,,67190,GRENDELBRUCH,0,0,1er degré,Public,ce.0671241K@ac-strasbourg.fr,0388978433,,,OBERNAI,Deux portes,Deux Portes,SUD,OBERNAI Europe,,,PIAL_0672868D,,86,93,48.49273535,7.322814478,"48,47351189","7,483504161",12.03490185
0671243M,"E.E.PU ",ECOLE PRIMAIRE,ECOLE PRIMAIRE GRIESHEIM PRES MOLSHEIM,ECOLE PRIMAIRE PUBLIQUE GRIESHEIM PRES MOLSHEIM,COLLEGE HERRADE DE LANDSBERG,"ECOLE PRIMAIRE PUBLIQUE ",,Hors EP,,47 rue du Général de Gaulle,,67870,GRIESHEIM PRES MOLSHEIM,0,0,1er degré,Public,ce.0671243M@ac-strasbourg.fr,0388161590,,,OBERNAI,Deux portes,Deux Portes,SUD,OBERNAI Europe,SUD 6,ALLAIS Florence,PIAL_0672868D,,113,130,48.50279126,7.53272165,"48,47351189","7,483504161",4.87403418
0671245P,"E.P.PU ",ECOLE PRIMAIRE,ECOLE PRIMAIRE MOLLKIRCH,ECOLE PRIMAIRE PUBLIQUE MOLLKIRCH,COLLEGE HERRADE DE LANDSBERG,"ECOLE PRIMAIRE PUBLIQUE ",,Hors EP,,15 rue du Mollberg,,67190,MOLLKIRCH,0,0,1er degré,Public,ce.0671245P@ac-strasbourg.fr,0388490009,,,OBERNAI,Deux portes,Deux Portes,SUD,OBERNAI Europe,SUD 6,ALLAIS Florence,PIAL_0672868D,,69,74,48.50560535,7.385156558,"48,47351189","7,483504161",8.078667961
0671246R,"E.P.PU ",ECOLE ELEMENTAIRE,ECOLE ELEMENTAIRE OTTROTT,ECOLE PRIMAIRE PUBLIQUE OTTROTT,COLLEGE FREPPEL,"ECOLE PRIMAIRE PUBLIQUE ",,Hors EP,,5 avenue des Myrtilles,,67530,OTTROTT,0,0,1er degré,Public,ce.0671246R@ac-strasbourg.fr,0388959658,,,OBERNAI,Deux portes,Deux Portes,SUD,OBERNAI Europe,SUD 2,RIEGERT Isabelle,PIAL_0671434V,,99,106,48.45553532,7.42981138,"48,47351189","7,483504161",4.434875435
0671248T,"E.P.PU ",ECOLE PRIMAIRE,ECOLE PRIMAIRE ROSENWILLER,ECOLE PRIMAIRE PUBLIQUE ROSENWILLER,COLLEGE HERRADE DE LANDSBERG,"ECOLE PRIMAIRE PUBLIQUE ",,Hors EP,,2 rue de l'Ecole,,67560,ROSENWILLER,0,0,1er degré,Public,ce.0671248T@ac-strasbourg.fr,0388507369,,,OBERNAI,Deux portes,Deux Portes,SUD,OBERNAI Europe,SUD 6,ALLAIS Florence,PIAL_0672868D,,54,56,48.50622282,7.441709952,"48,47351189","7,483504161",4.766166621
0671250V,"E.E.PU ",ECOLE PRIMAIRE,ECOLE PRIMAIRE ST NABOR,ECOLE PRIMAIRE PUBLIQUE ST NABOR,COLLEGE FREPPEL,"ECOLE PRIMAIRE PUBLIQUE ",,Hors EP,,10 rue des Carrières,,67530,ST NABOR,0,0,1er degré,Public,ce.0671250V@ac-strasbourg.fr,0972132955,,,OBERNAI,Deux portes,Deux Portes,SUD,OBERNAI Europe,SUD 2,RIEGERT Isabelle,PIAL_0671434V,,22,25,48.44602344,7.422969367,"48,47351189","7,483504161",5.40995825
0671433U,"E.E.PU ",ECOLE PRIMAIRE PABLO PICASSO,ECOLE PRIMAIRE PABLO PICASSO OBERNAI,ECOLE ELEMENTAIRE PUBLIQUE PABLO PICASSO OBERNAI,COLLEGE EUROPE,"ECOLE ELEMENTAIRE PUBLIQUE ","PABLO PICASSO ",Hors EP,,Square Saint-Charles,,67210,OBERNAI,0,1,1er degré,Public,ce.0671433U@ac-strasbourg.fr,0388952954,,,OBERNAI,Deux portes,Deux Portes,SUD,OBERNAI Europe,SUD 2,RIEGERT Isabelle,PIAL_0671434V,,357,317,48.46056707,7.496460116,"48,47351189","7,483504161",1.727514242
0671434V,"E.P.PU ",ECOLE PRIMAIRE FREPPEL,ECOLE PRIMAIRE FREPPEL OBERNAI,ECOLE PRIMAIRE PUBLIQUE FREPPEL OBERNAI,COLLEGE FREPPEL,"ECOLE PRIMAIRE PUBLIQUE ","FREPPEL ",Hors EP,,29 rue du Général Gouraud,,67210,OBERNAI,0,0,1er degré,Public,ce.0671434V@ac-strasbourg.fr,0388952947,,,OBERNAI,Deux portes,Deux Portes,SUD,OBERNAI Europe,SUD 2,RIEGERT Isabelle,PIAL_0671434V,,156,181,48.46206067,7.485857838,"48,47351189","7,483504161",1.285087658
0671435W,"E.P.PU ",ECOLE PRIMAIRE,ECOLE PRIMAIRE BERNARDSWILLER,ECOLE PRIMAIRE PUBLIQUE ECOLE PRIMAIRE BERNARDSWILLER,COLLEGE FREPPEL,"ECOLE PRIMAIRE PUBLIQUE ","ECOLE PRIMAIRE ",Hors EP,,Rue de l'Ecole,,67210,BERNARDSWILLER,0,0,1er degré,Public,ce.0671435W@ac-strasbourg.fr,0388954293,,,OBERNAI,Deux portes,Deux Portes,SUD,OBERNAI Europe,EUROMETROPOLE 4,BAPPERT Virginie,PIAL_0671434V,,115,116,48.45144875,7.463028638,"48,47351189","7,483504161",2.880639048
0671439A,"E.E.PU ",ECOLE PRIMAIRE,ECOLE PRIMAIRE INNENHEIM,ECOLE PRIMAIRE PUBLIQUE INNENHEIM,COLLEGE EUROPE,"ECOLE PRIMAIRE PUBLIQUE ",,Hors EP,,73 rue du Général de Gaulle,,67880,INNENHEIM,0,0,1er degré,Public,ce.0671439A@ac-strasbourg.fr,0388957045,,,OBERNAI,Deux portes,Deux Portes,SUD,OBERNAI Europe,EUROMETROPOLE 4,BAPPERT Virginie,PIAL_0671434V,,76,69,48.49656146,7.573020646,"48,47351189","7,483504161",7.077867576
0671443E,"E.E.PU ",ECOLE PRIMAIRE,ECOLE PRIMAIRE MEISTRATZHEIM,ECOLE PRIMAIRE PUBLIQUE MEISTRATZHEIM,COLLEGE EUROPE,"ECOLE PRIMAIRE PUBLIQUE ",,Hors EP,,417 bis rue Sainte Odile,,67210,MEISTRATZHEIM,0,0,1er degré,Public,ce.0671443E@ac-strasbourg.fr,0388483513,,,OBERNAI,Deux portes,Deux Portes,SUD,OBERNAI Europe,EUROMETROPOLE 4,BAPPERT Virginie,PIAL_0671434V,,79,85,48.44970797,7.540774039,"48,47351189","7,483504161",4.983805541
0671445G,"E.E.PU ",ECOLE PRIMAIRE SAINTE BARBE,ECOLE PRIMAIRE SAINTE BARBE NIEDERNAI,ECOLE PRIMAIRE PUBLIQUE STE BARBE NIEDERNAI,COLLEGE EUROPE,"ECOLE PRIMAIRE PUBLIQUE ","STE BARBE ",Hors EP,,34 rue du Château,,67210,NIEDERNAI,0,0,1er degré,Public,ce.0671445G@ac-strasbourg.fr,0388954119,,,OBERNAI,Deux portes,Deux Portes,SUD,OBERNAI Europe,EUROMETROPOLE 4,BAPPERT Virginie,PIAL_0671434V,,69,69,48.45112875,7.518230617,"48,47351189","7,483504161",3.570851638
0671515H,"E.M.PU ",ECOLE MATERNELLE CAMILLE CLAUDEL,ECOLE MATERNELLE CAMILLE CLAUDEL OBERNAI,ECOLE MATERNELLE PUBLIQUE CAMILLE CLAUDEL OBERNAI,COLLEGE FREPPEL,"ECOLE MATERNELLE PUBLIQUE ","CAMILLE CLAUDEL ",Hors EP,,2 square Saint-Charles,,67210,OBERNAI,0,0,1er degré,Public,ce.0671515H@ac-strasbourg.fr,0388952955,,,OBERNAI,Deux portes,Deux Portes,SUD,,SUD 2,RIEGERT Isabelle,PIAL_0671434V,,173,218,48.46139611,7.495555701,"48,47351189","7,483504161",1.613835987
0671772M,"E.P.PU ",ECOLE PRIMAIRE PARC,ECOLE PRIMAIRE PARC OBERNAI,ECOLE PRIMAIRE PUBLIQUE PARC OBERNAI,COLLEGE FREPPEL,"ECOLE PRIMAIRE PUBLIQUE ","PARC ",Hors EP,,204 bis route d'Ottrott,,67210,OBERNAI,0,0,1er degré,Public,ce.0671772M@ac-strasbourg.fr,0388954806,,,OBERNAI,Deux portes,Deux Portes,SUD,OBERNAI Europe,SUD 2,RIEGERT Isabelle,PIAL_0671434V,,176,186,48.46185149,7.474603077,"48,47351189","7,483504161",1.453196068
0671913R,"CLG ",COLLEGE HERRADE DE LANDSBERG,COLLEGE HERRADE DE LANDSBERG ROSHEIM,COLLEGE HERRADE DE LANDSBERG ROSHEIM,COLLEGE HERRADE DE LANDSBERG,"COLLEGE ","HERRADE DE LANDSBERG ",Hors EP,,4 rue du Stade,,67560,ROSHEIM,125.2,0,2nd degré,Public,ce.0671913R@ac-strasbourg.fr,0388504333,BAUMANN Laurence,SANS INTERNAT AVEC DEMI PENSION,OBERNAI,Deux portes,Deux Portes,SUD,,SUD 6,ALLAIS Florence,PIAL_0672868D,,667,655,48.50090611,7.476194533,"48,47351189","7,483504161",3.09336657
0671933M,"E.M.PU ",ECOLE MATERNELLE,ECOLE MATERNELLE INNENHEIM,ECOLE MATERNELLE PUBLIQUE INNENHEIM,COLLEGE EUROPE,"ECOLE MATERNELLE PUBLIQUE ",,Hors EP,,Rue des Roses,,67880,INNENHEIM,0,0,1er degré,Public,ce.0671933M@ac-strasbourg.fr,0388957108,,,OBERNAI,Deux portes,Deux Portes,SUD,,EUROMETROPOLE 4,BAPPERT Virginie,PIAL_0671434V,,48,50,48.49737408,7.572253634,"48,47351189","7,483504161",7.058621929
0671997G,"E.M.PU ",ECOLE MATERNELLE,ECOLE MATERNELLE GRIESHEIM PRES MOLSHEIM,ECOLE MATERNELLE PUBLIQUE GRIESHEIM PRES MOLSHEIM,COLLEGE HERRADE DE LANDSBERG,"ECOLE MATERNELLE PUBLIQUE ",,Hors EP,,Rue de Rosheim,,67870,GRIESHEIM PRES MOLSHEIM,0,0,1er degré,Public,ce.0671997G@ac-strasbourg.fr,0388386398,,,OBERNAI,Deux portes,Deux Portes,SUD,,SUD 6,ALLAIS Florence,PIAL_0672868D,,79,60,48.50448595,7.524934434,"48,47351189","7,483504161",4.602664526
0672078V,"CLG ",COLLEGE EUROPE,COLLEGE EUROPE OBERNAI,COLLEGE EUROPE OBERNAI,COLLEGE EUROPE,"COLLEGE ","EUROPE ",Hors EP,,33 avenue des Champs verts,,67210,OBERNAI,112.9,1,2nd degré,Public,ce.0672078V@ac-strasbourg.fr,0388476100,KERAMPRAN Gabrielle,SANS INTERNAT AVEC DEMI PENSION,OBERNAI,Deux portes,Deux Portes,SUD,,SUD 2,RIEGERT Isabelle,PIAL_0671434V,55,459,588,48.459749,7.499046729,"48,47351189","7,483504161",1.9118493
0672132D,"CLG ",COLLEGE FREPPEL,COLLEGE FREPPEL OBERNAI,COLLEGE FREPPEL OBERNAI,COLLEGE FREPPEL,"COLLEGE ","FREPPEL ",Hors EP,,1 rue du Stade,,67213,OBERNAI,116.2,1,2nd degré,Public,ce.0672132D@ac-strasbourg.fr,0388956161,SCHAHL Dominique,SANS INTERNAT AVEC DEMI PENSION,OBERNAI,Deux portes,Deux Portes,SUD,,SUD 2,RIEGERT Isabelle,PIAL_0671434V,,404,418,48.4601323,7.489360345,"48,47351189","7,483504161",1.549129115
0672868D,"E.P.PU ",ECOLE PRIMAIRE GROUPE SCOLAIRE DU ROSENMEER,ECOLE PRIMAIRE GROUPE SCOLAIRE DU ROSENMEER ROSHEIM,ECOLE PRIMAIRE PUBLIQUE GROUPE SCOLAIRE DU ROSENMEER ROSHEIM,COLLEGE HERRADE DE LANDSBERG," ECOLE PRIMAIRE PUBLIQUE ","GROUPE SCOLAIRE DU ROSENMEER ",Hors EP,,11 rue de l'Eglise,,67560,ROSHEIM,0,0,1er degré,Public,ce.0672868D@ac-strasbourg.fr,0388504286,,,OBERNAI,Deux portes,Deux Portes,SUD,OBERNAI Europe,SUD 6,ALLAIS Florence,PIAL_0672868D,,402,464,48.49422781,7.466766544,"48,47351189","7,483504161",2.613035355
0672875L,"E.P.PU ",ECOLE PRIMAIRE LILI SCHOENEMANN,ECOLE PRIMAIRE LILI SCHOENEMANN KRAUTERGERSHEIM,ECOLE PRIMAIRE PUBLIQUE LILI SCHOENEMANN KRAUTERGERSHEIM,COLLEGE EUROPE,"ECOLE PRIMAIRE PUBLIQUE ","LILI SCHOENEMANN ",Hors EP,,2 place du Tramway,,67880,KRAUTERGERSHEIM,0,0,1er degré,Public,ce.0672875L@ac-strasbourg.fr,0388957867,,,OBERNAI,Deux portes,Deux Portes,SUD,OBERNAI Europe,EUROMETROPOLE 4,BAPPERT Virginie,PIAL_0671434V,,156,163,48.47725928,7.563928009,"48,47351189","7,483504161",5.943130396
0670017E,"CLG ",COLLEGE ROMAIN ROLLAND,COLLEGE ROMAIN ROLLAND ERSTEIN,COLLEGE ROMAIN ROLLAND ERSTEIN,,"COLLEGE ","ROMAIN ROLLAND ",Hors EP,,4 rue de Wissembourg,,67150,ERSTEIN,105.8,1,2nd degré,Public,ce.0670017E@ac-strasbourg.fr,0388980435,DOMINIQUE SCHAHL,SANS INTERNAT AVEC DEMI PENSION,ERSTEIN,Erstein,Erstein,SUD,,SUD 5,HUMMEL Christelle,PIAL_0670017E,88,702,806,48.42191629,7.655386984,"48,39321467","7,66095688",3.217846939
0670200D,"E.M.PU ",ECOLE MATERNELLE CHATEAU D EAU,ECOLE MATERNELLE CHATEAU D EAU ERSTEIN,ECOLE MATERNELLE PUBLIQUE CHATEAU D'EAU ERSTEIN,,"ECOLE MATERNELLE PUBLIQUE ","CHATEAU D'EAU ",Hors EP,,Rue d'Obernai,,67150,ERSTEIN,0,0,1er degré,Public,ce.0670200D@ac-strasbourg.fr,0388989460,,,ERSTEIN,Erstein,Erstein,SUD,,SUD 5,HUMMEL Christelle,PIAL_0670017E,,111,84,48.42134161,7.655356333,"48,39321467","7,66095688",3.154776788
0670206K,"E.M.PU ",ECOLE MATERNELLE,ECOLE MATERNELLE HINDISHEIM,ECOLE MATERNELLE PUBLIQUE HINDISHEIM,,"ECOLE MATERNELLE PUBLIQUE ",,Hors EP,,268 rue de l'Eglise,,67150,HINDISHEIM,0,0,1er degré,Public,ce.0670206K@ac-strasbourg.fr,0388641488,,,ERSTEIN,Erstein,Erstein,SUD,,SUD 5,HUMMEL Christelle,PIAL_0670017E,,44,51,48.46955695,7.637654826,"48,39321467","7,66095688",8.661217555
0670737M,"E.P.PU ",ECOLE PRIMAIRE,ECOLE PRIMAIRE DIEBOLSHEIM,ECOLE PRIMAIRE PUBLIQUE DIEBOLSHEIM,COLLEGE DES DEUX RIVES,"ECOLE PRIMAIRE PUBLIQUE ",,Hors EP,,Rue de l'Eglise,,67230,DIEBOLSHEIM,0,0,1er degré,Public,ce.0670737M@ac-strasbourg.fr,0388748370,,,ERSTEIN,Erstein,Erstein,SUD,ERSTEIN Romain Rolland,SUD 4,GRUNERT Anny,PIAL_0670106B,,37,19,48.29065569,7.662561937,"48,39321467","7,66095688",11.40465541
0671348B,"E.P.PU ",ECOLE PRIMAIRE,ECOLE PRIMAIRE HERBSHEIM,ECOLE PRIMAIRE PUBLIQUE HERBSHEIM,COLLEGE ROBERT SCHUMAN,"ECOLE PRIMAIRE PUBLIQUE ",,Hors EP,,103 rue de l'Eglise,,67230,HERBSHEIM,0,0,1er degré,Public,ce.0671348B@ac-strasbourg.fr,0388743167,,,ERSTEIN,Erstein,Erstein,SUD,ERSTEIN Romain Rolland,SUD 4,GRUNERT Anny,PIAL_0672083A,,79,89,48.34982373,7.630280423,"48,39321467","7,66095688",5.330459548
0671359N,"E.P.PU ",ECOLE PRIMAIRE SCHMALAU,ECOLE PRIMAIRE SCHMALAU RHINAU,ECOLE PRIMAIRE PUBLIQUE SCHMALAU RHINAU,COLLEGE DES DEUX RIVES,"ECOLE PRIMAIRE PUBLIQUE ","SCHMALAU ",Hors EP,,3 rue Monpazier,,67860,RHINAU,0,1,1er degré,Public,ce.0671359N@ac-strasbourg.fr,0388746490,,,ERSTEIN,Erstein,Erstein,SUD,ERSTEIN Romain Rolland,SUD 4,GRUNERT Anny,PIAL_0670106B,,197,145,48.32129825,7.703860703,"48,39321467","7,66095688",8.602153464
0671360P,"E.P.PU ",ECOLE PRIMAIRE,ECOLE PRIMAIRE ROSSFELD,ECOLE PRIMAIRE PUBLIQUE ROSSFELD,COLLEGE ROBERT SCHUMAN,"ECOLE PRIMAIRE PUBLIQUE ",,Hors EP,,44 rue Principale,,67230,ROSSFELD,0,0,1er degré,Public,ce.0671360P@ac-strasbourg.fr,0388743707,,,ERSTEIN,Erstein,Erstein,SUD,ERSTEIN Romain Rolland,SUD 4,GRUNERT Anny,PIAL_0672083A,,103,94,48.33875701,7.615966459,"48,39321467","7,66095688",6.907582324
0671366W,"E.P.PU ",ECOLE PRIMAIRE,ECOLE PRIMAIRE WITTERNHEIM,ECOLE PRIMAIRE WITTERNHEIM,COLLEGE DES DEUX RIVES,"ECOLE PRIMAIRE ",,Hors EP,,71 rue de l'Ecole,,67230,WITTERNHEIM,0,0,1er degré,Public,ce.0671366W@ac-strasbourg.fr,0388854685,,,ERSTEIN,Erstein,Erstein,SUD,ERSTEIN Romain Rolland,SUD 4,GRUNERT Anny,PIAL_0670106B,,69,73,48.31484042,7.611049459,"48,39321467","7,66095688",9.462959132
0671371B,"E.P.PU ",ECOLE INTERCOMMUNALE DE LA SCHEER,ECOLE INTERCOMMUNALE DE LA SCHEER BOLSENHEIM,ECOLE BOLSENHEIM UTTENHEIM ECOLE DE LA SCHEER BOLSENHEIM,COLLEGE LES CIGOGNES,"ECOLE BOLSENHEIM UTTENHEIM ","ECOLE DE LA SCHEER ",Hors EP,,13 rue de l'Eglise,,67150,BOLSENHEIM,0,0,1er degré,Public,ce.0671371B@ac-strasbourg.fr,0388980224,,,ERSTEIN,Erstein,Erstein,SUD,ERSTEIN Romain Rolland,SUD 5,HUMMEL Christelle,PIAL_0670017E,,93,85,48.41928447,7.608711718,"48,39321467","7,66095688",4.824529773
0671379K,"E.P.PU ",ECOLE INTERCOMMUNALE HIPSHEIM ICHTRATZHEIM,ECOLE INTERCOMMUNALE HIPSHEIM ICHTRATZHEIM HIPSHEIM,ECOLE INTERCOMMUNALE HIPSHEIM ICHTRATZHEIM HIPSHEIM,COLLEGE ROMAIN ROLLAND,"ECOLE INTERCOMMUNALE ","HIPSHEIM ICHTRATZHEIM ",Hors EP,,16 rue Saint Ludan,,67150,HIPSHEIM,0,0,1er degré,Public,ce.0671379K@ac-strasbourg.fr,0388640102,,,ERSTEIN,Erstein,Erstein,SUD,ERSTEIN Romain Rolland,SUD 5,HUMMEL Christelle,PIAL_0670017E,,119,126,48.46684024,7.674695408,"48,39321467","7,66095688",8.249303457
0671380L,"E.P.PU ",ECOLE PRIMAIRE,ECOLE PRIMAIRE LIMERSHEIM,ECOLE PRIMAIRE PUBLIQUE LIMERSHEIM,COLLEGE ROMAIN ROLLAND,"ECOLE PRIMAIRE PUBLIQUE ",,Hors EP,,Rue du Lin,,67150,LIMERSHEIM,0,0,1er degré,Public,ce.0671380L@ac-strasbourg.fr,0388685855,,,ERSTEIN,Erstein,Erstein,SUD,ERSTEIN Romain Rolland,SUD 5,HUMMEL Christelle,PIAL_0670017E,,35,43,48.45330128,7.642867046,"48,39321467","7,66095688",6.813370009
0671382N,"E.P.PU ",ECOLE PRIMAIRE,ECOLE PRIMAIRE NORDHOUSE,ECOLE PRIMAIRE PUBLIQUE NORDHOUSE,COLLEGE ROMAIN ROLLAND,"ECOLE PRIMAIRE PUBLIQUE ",,Hors EP,,167 rue de l'Ecole,,67150,NORDHOUSE,0,0,1er degré,Public,ce.0671382N@ac-strasbourg.fr,0388980610,,,ERSTEIN,Erstein,Erstein,SUD,ERSTEIN Romain Rolland,SUD 5,HUMMEL Christelle,PIAL_0670017E,,160,179,48.44729329,7.671675143,"48,39321467","7,66095688",6.065065196
0671385S,"E.P.PU ",ECOLE PRIMAIRE,ECOLE PRIMAIRE OBENHEIM,ECOLE PRIMAIRE PUBLIQUE OBENHEIM,COLLEGE LES CIGOGNES,"ECOLE PRIMAIRE PUBLIQUE ",,Hors EP,,3 place du Général de Gaulle,,67230,OBENHEIM,0,0,1er degré,Public,ce.0671385S@ac-strasbourg.fr,0388513624,,,ERSTEIN,Erstein,Erstein,SUD,ERSTEIN Romain Rolland,SUD 5,HUMMEL Christelle,PIAL_0670017E,,75,101,48.35949006,7.690550722,"48,39321467","7,66095688",4.340530728
0671386T,"E.P.PU ",ECOLE PRIMAIRE,ECOLE PRIMAIRE OSTHOUSE,ECOLE PRIMAIRE PUBLIQUE OSTHOUSE,COLLEGE ROMAIN ROLLAND,"ECOLE PRIMAIRE PUBLIQUE ",,Hors EP,,26 rue du Château,,67150,OSTHOUSE,0,0,1er degré,Public,ce.0671386T@ac-strasbourg.fr,0388981050,,,ERSTEIN,Erstein,Erstein,SUD,ERSTEIN Romain Rolland,SUD 5,HUMMEL Christelle,PIAL_0670017E,,89,81,48.40152538,7.640962782,"48,39321467","7,66095688",1.741545784
0671388V,"E.P.PU ",ECOLE PRIMAIRE,ECOLE PRIMAIRE SCHAEFFERSHEIM,ECOLE PRIMAIRE SERGE JUNG SCHAEFFERSHEIM,COLLEGE ROMAIN ROLLAND,"ECOLE PRIMAIRE SERGE JUNG ",,Hors EP,,1A rue de l'école,,67150,SCHAEFFERSHEIM,0,0,1er degré,Public,ce.0671388V@ac-strasbourg.fr,0388982230,,,ERSTEIN,Erstein,Erstein,SUD,ERSTEIN Romain Rolland,SUD 5,HUMMEL Christelle,PIAL_0670017E,,88,75,48.42749231,7.623521424,"48,39321467","7,66095688",4.70769075
0671513F,"E.M.PU ",ECOLE MATERNELLE LE BRIEHLY MITTELHOLZ,ECOLE MATERNELLE LE BRIEHLY MITTELHOLZ ERSTEIN,ECOLE MATERNELLE PUBLIQUE LE BRIEHLY-MITTELHOLZ ERSTEIN,,"ECOLE MATERNELLE PUBLIQUE ","LE BRIEHLY-MITTELHOLZ ",Hors EP,,31 rue de la Dordogne,,67150,ERSTEIN,0,0,1er degré,Public,ce.0671513F@ac-strasbourg.fr,0388989461,,,ERSTEIN,Erstein,Erstein,SUD,,SUD 5,HUMMEL Christelle,PIAL_0670017E,,145,142,48.42441046,7.668682738,"48,39321467","7,66095688",3.515375678
0671963V,"CLG ",COLLEGE DES DEUX RIVES,COLLEGE DES DEUX RIVES RHINAU,COLLEGE DES DEUX RIVES RHINAU,,"COLLEGE ","DES DEUX RIVES ",Hors EP,,31 rue de la Chasse,,67860,RHINAU,105.9,1,2nd degré,Public,ce.0671963V@ac-strasbourg.fr,0388746177,FREDERICK ANSART,SANS INTERNAT AVEC DEMI PENSION,ERSTEIN,Erstein,Erstein,SUD,,SUD 4,GRUNERT Anny,PIAL_0670106B,,287,233,48.31900661,7.71095994,"48,39321467","7,66095688",9.04095232
0671996F,"E.P.PU ",ECOLE PRIMAIRE LES CIGOGNES,ECOLE PRIMAIRE LES CIGOGNES GERSTHEIM,ECOLE PRIMAIRE PUBLIQUE LES CIGOGNES GERSTHEIM,COLLEGE ROMAIN ROLLAND,"ECOLE PRIMAIRE PUBLIQUE ","LES CIGOGNES ",Hors EP,,1 rue des Cigognes,,67150,GERSTHEIM,0,1,1er degré,Public,ce.0671996F@ac-strasbourg.fr,0388983410,,,ERSTEIN,Erstein,Erstein,SUD,ERSTEIN Romain Rolland,SUD 5,HUMMEL Christelle,PIAL_0670017E,,346,366,48.37554497,7.706047769,"48,39321467","7,66095688",3.866313533
0672023K,"E.E.PU ",ECOLE PRIMAIRE,ECOLE PRIMAIRE BOOFZHEIM,ECOLE PRIMAIRE PUBLIQUE BOOFZHEIM,COLLEGE DES DEUX RIVES,"ECOLE PRIMAIRE PUBLIQUE ",,Hors EP,,2 rue Mieg,,67860,BOOFZHEIM,0,0,1er degré,Public,ce.0672023K@ac-strasbourg.fr,0388748187,,,ERSTEIN,Erstein,Erstein,SUD,ERSTEIN Romain Rolland,SUD 4,GRUNERT Anny,PIAL_0670106B,,74,98,48.33187013,7.678010497,"48,39321467","7,66095688",6.936582779
0672040D,"E.P.PU ",ECOLE ELEMENTAIRE ANNE FRANK,ECOLE ELEMENTAIRE ANNE FRANK ERSTEIN,ECOLE PRIMAIRE PUBLIQUE ANNE FRANK ERSTEIN,COLLEGE ROMAIN ROLLAND,"ECOLE PRIMAIRE PUBLIQUE ","ANNE FRANK ",Hors EP,,19 rue de Strasbourg,,67150,ERSTEIN,0,1,1er degré,Public,ce.0672040D@ac-strasbourg.fr,0388988230,,,ERSTEIN,Erstein,Erstein,SUD,ERSTEIN Romain Rolland,SUD 5,HUMMEL Christelle,PIAL_0670017E,,245,292,48.42446396,7.661073734,"48,39321467","7,66095688",3.474773386
0672041E,"E.E.PU ",ECOLE PRIMAIRE PIERRE ET MARIE CURIE,ECOLE PRIMAIRE PIERRE ET MARIE CURIE ERSTEIN,ECOLE PRIMAIRE PUBLIQUE PIERRE ET MARIE CURIE ERSTEIN,COLLEGE ROMAIN ROLLAND,"ECOLE PRIMAIRE PUBLIQUE ","PIERRE ET MARIE CURIE ",Hors EP,,9 rue du Vieux Marché,,67150,ERSTEIN,0,1,1er degré,Public,ce.0672041E@ac-strasbourg.fr,0388988264,,,ERSTEIN,Erstein,Erstein,SUD,ERSTEIN Romain Rolland,SUD 5,HUMMEL Christelle,PIAL_0670017E,,271,358,48.42349458,7.660309304,"48,39321467","7,66095688",3.367311765
0672085C,"E.M.PU ",ECOLE MATERNELLE,ECOLE MATERNELLE BOOFZHEIM,ECOLE MATERNELLE PUBLIQUE BOOFZHEIM,,"ECOLE MATERNELLE PUBLIQUE ",,Hors EP,,Place de la Mairie,,67860,BOOFZHEIM,0,0,1er degré,Public,ce.0672085C@ac-strasbourg.fr,0388748235,,,ERSTEIN,Erstein,Erstein,SUD,,SUD 4,GRUNERT Anny,PIAL_0670106B,,40,42,48.33201847,7.679956589,"48,39321467","7,66095688",6.947977033
0672135G,"CLG ",COLLEGE LES CIGOGNES,COLLEGE LES CIGOGNES GERSTHEIM,COLLEGE LES CIGOGNES GERSTHEIM,,"COLLEGE ","LES CIGOGNES ",Hors EP,,8 rue des cigognes,,67150,GERSTHEIM,115.4,0,2nd degré,Public,ce.0672135G@ac-strasbourg.fr,0388596000,JULIEN CHERAULT,SANS INTERNAT AVEC DEMI PENSION,ERSTEIN,Erstein,Erstein,SUD,,SUD 5,HUMMEL Christelle,PIAL_0670017E,,322,341,48.37554497,7.706047769,"48,39321467","7,66095688",3.866313533
0672272F,"E.E.PU ",ECOLE ELEMENTAIRE,ECOLE ELEMENTAIRE HINDISHEIM,ECOLE ELEMENTAIRE PUBLIQUE HINDISHEIM,COLLEGE ROMAIN ROLLAND,"ECOLE ELEMENTAIRE PUBLIQUE ",,Hors EP,,130 rue de la Gare,,67150,HINDISHEIM,0,0,1er degré,Public,ce.0672272F@ac-strasbourg.fr,0388641389,,,ERSTEIN,Erstein,Erstein,SUD,ERSTEIN Romain Rolland,SUD 5,HUMMEL Christelle,PIAL_0670017E,,83,69,48.46757809,7.637329437,"48,39321467","7,66095688",8.450596625
0672443S,"E.M.PU ",ECOLE MATERNELLE HAMEAU KRAFFT,ECOLE MATERNELLE HAMEAU KRAFFT ERSTEIN,ECOLE MATERNELLE PUBLIQUE HAMEAU KRAFFT ERSTEIN,,"ECOLE MATERNELLE PUBLIQUE ","HAMEAU KRAFFT ",Hors EP,,8 rue Saint-Quentin,"KRAFFT ",67150,ERSTEIN,0,0,1er degré,Public,ce.0672443S@ac-strasbourg.fr,0388988268,,,ERSTEIN,Erstein,Erstein,SUD,,SUD 5,HUMMEL Christelle,PIAL_0670017E,,23,46,48.42331747,7.699183883,"48,39321467","7,66095688",4.377902151
0672677W,"LPO ",LYCEE POLYVALENT MARGUERITE YOURCENAR,LYCEE POLYVALENT MARGUERITE YOURCENAR ERSTEIN,LYCEE POLYVALENT MARGUERITE YOURCENAR ERSTEIN,,"LYCEE POLYVALENT ","MARGUERITE YOURCENAR ",Sans objet,,12 rue Victor Schoelcher,,67152,ERSTEIN,118,0,2nd degré,Public,ce.0672677W@ac-strasbourg.fr,0388980160,JACQUES SCHWEITZER,SANS INTERNAT NI DEMI PENSION,ERSTEIN,Erstein,Erstein,SUD,,SUD 5,HUMMEL Christelle,PIAL_0670017E,,807,914,48.42291477,7.652175861,"48,39321467","7,66095688",3.365503902
0670280R,"E.M.PU ",ECOLE MATERNELLE LEONARD DE VINCI,ECOLE MATERNELLE LEONARD DE VINCI STRASBOURG,ECOLE MATERNELLE PUBLIQUE LEONARD DE VINCI STRASBOURG,COLLEGE HANS ARP,"ECOLE MATERNELLE PUBLIQUE ","LEONARD DE VINCI ",REP+,REP+,3 rue Léonard de Vinci,,67200,STRASBOURG,0,0,1er degré,Public,ce.0670280R@ac-strasbourg.fr,0388301075,,,STRASBOURG 4,Etangs,Etangs,EUROMETROPOLE,,STRASBOURG CENTRE 1,JOURDIL Hélène,PIAL_0671907J,,105,132,48.56536059,7.726401095,"48,56211044","7,703203175",1.744908628
0670281S,"E.M.PU ",ECOLE MATERNELLE GLIESBERG,ECOLE MATERNELLE GLIESBERG STRASBOURG,ECOLE MATERNELLE PUBLIQUE GLIESBERG STRASBOURG,COLLEGE HANS ARP,"ECOLE MATERNELLE PUBLIQUE ","GLIESBERG ",REP+,REP+,10 chemin du Gliesberg,,67200,STRASBOURG,0,0,1er degré,Public,ce.0670281S@ac-strasbourg.fr,0388291170,,,STRASBOURG 4,Etangs,Etangs,EUROMETROPOLE,,STRASBOURG CENTRE 1,JOURDIL Hélène,PIAL_0671907J,,119,129,48.56788581,7.711328062,"48,56211044","7,703203175",0.877418927
0670282T,"E.M.PU ",ECOLE MATERNELLE GUTENBERG,ECOLE MATERNELLE GUTENBERG STRASBOURG,ECOLE MATERNELLE PUBLIQUE GUTENBERG STRASBOURG,COLLEGE HANS ARP,"ECOLE MATERNELLE PUBLIQUE ","GUTENBERG ",REP+,REP+,32 rue de Balbronn,,67200,STRASBOURG,0,0,1er degré,Public,ce.0670282T@ac-strasbourg.fr,0388303526,,,STRASBOURG 4,Etangs,Etangs,EUROMETROPOLE,,STRASBOURG CENTRE 1,JOURDIL Hélène,PIAL_0671907J,,144,144,48.56082105,7.703725043,"48,56211044","7,703203175",0.14842793
0670425Y,"E.E.PU ",ECOLE PRIMAIRE GLIESBERG,ECOLE PRIMAIRE GLIESBERG STRASBOURG,ECOLE ELEMENTAIRE PUBLIQUE GLIESBERG STRASBOURG,COLLEGE HANS ARP,"ECOLE ELEMENTAIRE PUBLIQUE ","GLIESBERG ",REP+,REP+,8 chemin du Gliesberg,,67200,STRASBOURG,0,0,1er degré,Public,ce.0670425Y@ac-strasbourg.fr,0388302656,,,STRASBOURG 4,Etangs,Etangs,EUROMETROPOLE,STRASBOURG Hans Arp,STRASBOURG CENTRE 1,JOURDIL Hélène,PIAL_0671907J,,212,230,48.56789234,7.710208472,"48,56211044","7,703203175",0.824058675
0671332J,"E.M.PU ",ECOLE MATERNELLE ERCKMANN CHATRIAN,ECOLE MATERNELLE ERCKMANN CHATRIAN STRASBOURG,ECOLE MATERNELLE PUBLIQUE ERCKMANN CHATRIAN STRASBOURG,COLLEGE HANS ARP,"ECOLE MATERNELLE PUBLIQUE ","ERCKMANN CHATRIAN ",REP+,REP+,280 route de Schirmeck,,67200,STRASBOURG,0,0,1er degré,Public,ce.0671332J@ac-strasbourg.fr,0388780632,,,STRASBOURG 4,Etangs,Etangs,EUROMETROPOLE,,STRASBOURG CENTRE 1,JOURDIL Hélène,PIAL_0671907J,,227,231,48.56209108,7.696677655,"48,56211044","7,703203175",0.480215789
0671665W,"E.E.PU ",ECOLE PRIMAIRE LES PRES,ECOLE PRIMAIRE LES PRES LINGOLSHEIM,ECOLE PRIMAIRE PUBLIQUE LES PRES LINGOLSHEIM,COLLEGE GALILEE,"ECOLE PRIMAIRE PUBLIQUE ","LES PRES ",Hors EP,,94 rue des Prés,,67380,LINGOLSHEIM,0,1,1er degré,Public,ce.0671665W@ac-strasbourg.fr,0388783900,,,STRASBOURG 4,Etangs,Etangs,EUROMETROPOLE,LINGOLSHEIM Maxime Alexandre,STRASBOURG SUD 3,MULLER Vanessa,PIAL_0672044H,,216,202,48.55347301,7.684317862,"48,56211044","7,703203175",1.689442076
0671775R,"E.E.PU ",ECOLE PRIMAIRE MARTIN SCHONGAUER,ECOLE PRIMAIRE MARTIN SCHONGAUER STRASBOURG,ECOLE PRIMAIRE PUBLIQUE MARTIN SCHONGAUER STRASBOURG,COLLEGE HANS ARP,"ECOLE PRIMAIRE PUBLIQUE ","MARTIN SCHONGAUER ",REP+,REP+,94 rue Martin Schongauer,,67200,STRASBOURG,0,1,1er degré,Public,ce.0671775R@ac-strasbourg.fr,0388269646,,,STRASBOURG 4,Etangs,Etangs,EUROMETROPOLE,STRASBOURG Hans Arp,STRASBOURG CENTRE 1,JOURDIL Hélène,PIAL_0671907J,,162,202,48.56332888,7.718954038,"48,56211044","7,703203175",1.166978303
0671907J,"CLG ",COLLEGE HANS ARP,COLLEGE HANS ARP STRASBOURG,COLLEGE HANS ARP,COLLEGE HANS ARP,"COLLEGE ","HANS ARP ",REP+,REP+,16 rue Van Eyck,,67200,STRASBOURG,75,1,2nd degré,Public,ce.0671907J@ac-strasbourg.fr,0388305157,BERTRAND PABST,SANS INTERNAT AVEC DEMI PENSION,STRASBOURG 4,Etangs,Etangs,EUROMETROPOLE,,STRASBOURG CENTRE 1,JOURDIL Hélène,PIAL_0671907J,57,672,810,48.56904584,7.717795247,"48,56211044","7,703203175",1.321993003
0671971D,"E.M.PU ",ECOLE MATERNELLE MARTIN SCHONGAUER,ECOLE MATERNELLE MARTIN SCHONGAUER STRASBOURG,ECOLE MATERNELLE PUBLIQUE MARTIN SCHONGAUER STRASBOURG,COLLEGE HANS ARP,"ECOLE MATERNELLE PUBLIQUE ","MARTIN SCHONGAUER ",REP+,REP+,92 rue Martin Schongauer,,67200,STRASBOURG,0,0,1er degré,Public,ce.0671971D@ac-strasbourg.fr,0388303704,,,STRASBOURG 4,Etangs,Etangs,EUROMETROPOLE,,STRASBOURG CENTRE 1,JOURDIL Hélène,PIAL_0671907J,,87,98,48.56373479,7.718853502,"48,56211044","7,703203175",1.165761189
